Date,Address,Postcode,Type,New-build,Tenure,Bedrooms,Price paid,Lat,Lng
10/7/2022 0:00,"45a, Avondale Road",N13 4DX,Flat,Old stock,Leasehold,2,397501,51.6258885,-0.1038261
9/30/2022 0:00,"13, Mitchell Road",N13 6EG,Semi-detached house,Old stock,Freehold,3,440000,51.6156924,-0.0939237
9/23/2022 0:00,"63a, Park Avenue, Palmers Green",N13 5PH,Flat,Old stock,Leasehold,1,365000,51.61615,-0.0999568
9/20/2022 0:00,"90, Fox Lane",N13 4AX,Semi-detached house,Old stock,Freehold,4,995000,51.6251899,-0.1146041
9/12/2022 0:00,"36, Rylston Road",N13 5NQ,Semi-detached house,Old stock,Freehold,4,690000,51.6214002,-0.0854933
8/31/2022 0:00,"3, Russell Road",N13 4RS,Terraced house,Old stock,Freehold,3,715600,51.6108979,-0.1160922
8/26/2022 0:00,"66, New Park Avenue",N13 5NB,Terraced house,Old stock,Freehold,3,562500,51.6209265,-0.0851232
8/25/2022 0:00,"121, Princes Avenue",N13 6HE,Terraced house,Old stock,Freehold,4,700000,51.6119515,-0.103353
8/24/2022 0:00,"33, St Georges Road",N13 4AT,Terraced house,Old stock,Freehold,4,997500,51.6258425,-0.1132478
8/23/2022 0:00,"119, New Park Avenue",N13 5NA,Terraced house,Old stock,Freehold,3,610000,51.6203375,-0.0881528
8/23/2022 0:00,"97, Broomfield Avenue",N13 4JR,Semi-detached house,Old stock,Freehold,3,865000,51.6152742,-0.1147843
8/19/2022 0:00,"90, Pilgrims Close",N13 4HZ,Flat,Old stock,Leasehold,1,280000,51.6177824,-0.1113869
8/19/2022 0:00,"8, Fox Lane",N13 4AH,Terraced house,Old stock,Freehold,4,970000,51.6219838,-0.1092764
8/2/2022 0:00,"53, Elvendon Road",N13 4SH,Terraced house,Old stock,Freehold,4,875000,51.6106577,-0.1213016
8/1/2022 0:00,"97a, Devonshire Road, Palmers Green",N13 4QS,Flat,Old stock,Leasehold,2,470000,51.6203438,-0.1073945
7/29/2022 0:00,"105, The Fairway, Palmers Green",N13 5QN,Terraced house,Old stock,Freehold,3,570000,51.6228976,-0.0879873
7/29/2022 0:00,"5, Rylston Road",N13 5NQ,Terraced house,Old stock,Freehold,4,625000,51.6214002,-0.0854933
7/29/2022 0:00,"130a, New River Crescent",N13 5RJ,Flat,Old stock,Leasehold,2,400000,51.6212952,-0.1006085
7/28/2022 0:00,"44, Lakeside Road",N13 4PR,Semi-detached house,Old stock,Freehold,5,1440044,51.621069,-0.1127815
7/28/2022 0:00,"68a, Caversham Avenue",N13 4LN,Flat,Old stock,Leasehold,2,482500,51.6236748,-0.1076313
7/25/2022 0:00,"40, Ashridge Gardens",N13 4LA,Semi-detached house,Old stock,Freehold,3,740000,51.6154807,-0.122619
7/21/2022 0:00,"23, Derwent Road",N13 4PY,Semi-detached house,Old stock,Freehold,5,1200000,51.6210712,-0.1151506
7/21/2022 0:00,"44, Lodge Drive",N13 5JZ,Terraced house,Old stock,Freehold,4,820000,51.6179949,-0.1061634
7/18/2022 0:00,"25, Caversham Avenue",N13 4LL,Terraced house,Old stock,Freehold,4,955000,51.6235853,-0.1082129
7/5/2022 0:00,"41, Belsize Avenue",N13 4TL,Terraced house,Old stock,Freehold,5,720000,51.6094497,-0.1121516
7/1/2022 0:00,"148, Cherry Blossom Close",N13 6BZ,Terraced house,Old stock,Leasehold,1,205000,51.6152743,-0.0960317
6/30/2022 0:00,"15, Dorchester Avenue",N13 5DZ,Terraced house,Old stock,Freehold,3,620000,51.6173179,-0.0894041
6/29/2022 0:00,"95, Westminster Drive",N13 4NT,Semi-detached house,Old stock,Freehold,5,750000,51.6136542,-0.1160736
6/28/2022 0:00,"4c, Elvendon Road",N13 4SJ,Flat,Old stock,Leasehold,1,287500,51.6106456,-0.1182486
6/24/2022 0:00,"4, Pellipar Close",N13 4AG,Flat,Old stock,Leasehold,2,335000,51.6213932,-0.1062925
6/16/2022 0:00,"84, Powys Lane",N13 4HR,Semi-detached house,Old stock,Freehold,4,1055000,51.6169458,-0.1197707
6/13/2022 0:00,"86, Fox Lane",N13 4AX,Semi-detached house,Old stock,Freehold,4,995000,51.6249158,-0.1138726
6/13/2022 0:00,"36, Doveridge Gardens",N13 5BL,Semi-detached house,Old stock,Freehold,3,706000,51.6172771,-0.0973871
6/1/2022 0:00,"61, Melbourne Avenue",N13 4SY,Terraced house,Old stock,Freehold,5,821000,51.6108642,-0.1117608
5/27/2022 0:00,"19a, Elmwood Avenue",N13 4HG,Flat,Old stock,Leasehold,2,432500,51.6157776,-0.1174575
5/18/2022 0:00,"9, Hamilton Way",N13 5LS,Flat,Old stock,Freehold,1,330000,51.616881,-0.1012264
5/13/2022 0:00,"108, New Park Avenue",N13 5LZ,Terraced house,Old stock,Freehold,3,535000,51.6206051,-0.0878565
5/13/2022 0:00,"20, Amberley Road",N13 4BJ,Terraced house,Old stock,Freehold,5,1300000,51.6263245,-0.1140512
5/12/2022 0:00,"93, Derwent Road",N13 4QA,Semi-detached house,Old stock,Freehold,4,1440000,51.6229933,-0.1133921
5/6/2022 0:00,"50, Fox Lane",N13 4AL,Semi-detached house,Old stock,Freehold,4,1175000,51.6231907,-0.1112375
5/3/2022 0:00,"34, Crawford Gardens",N13 5TD,Semi-detached house,Old stock,Freehold,3,680000,51.6233356,-0.0986876
5/3/2022 0:00,"24, Lytton Avenue",N13 4EH,Semi-detached house,Old stock,Freehold,2,619500,51.6270686,-0.1011762
4/29/2022 0:00,"87, Ash Grove",N13 5AW,Semi-detached house,Old stock,Freehold,3,615000,51.6246878,-0.0924354
4/29/2022 0:00,"7, Wishaw Walk",N13 4SW,Terraced house,Old stock,Freehold,2,500000,51.610218,-0.1181794
4/29/2022 0:00,"15a, Lytton Avenue",N13 4EH,Flat,Old stock,Leasehold,2,375000,51.6268513,-0.1012
4/29/2022 0:00,"37, Hawthorn Avenue",N13 4JS,Terraced house,Old stock,Freehold,3,725000,51.6151241,-0.11646
4/27/2022 0:00,"153, Powys Lane",N13 4NS,Detached house,Old stock,Freehold,4,825000,51.6137936,-0.1205916
4/26/2022 0:00,"16, Hardwicke Road",N13 4SG,Flat,Old stock,Leasehold,1,375000,51.6118397,-0.1209519
4/22/2022 0:00,"42, Ecclesbourne Gardens",N13 5JB,Terraced house,Old stock,Freehold,3,590000,51.6142178,-0.1071575
4/19/2022 0:00,"20, Lodge Drive",N13 5LB,Terraced house,Old stock,Freehold,4,810000,51.6181767,-0.1069768
4/11/2022 0:00,"69, Fox Lane",N13 4AJ,Terraced house,Old stock,Freehold,5,1225000,51.6230977,-0.1118019
4/11/2022 0:00,"18, Dawlish Avenue",N13 4HP,Terraced house,Old stock,Freehold,4,890000,51.6164337,-0.1228275
4/11/2022 0:00,"41, St Pauls Rise",N13 6LB,Flat,Old stock,Leasehold,2,301000,51.6102456,-0.0992443
4/8/2022 0:00,"27, River Avenue",N13 5RX,Terraced house,Old stock,Freehold,4,815000,51.6253888,-0.0986981
4/8/2022 0:00,"142, New Park Avenue",N13 5LZ,Terraced house,Old stock,Freehold,3,585000,51.6207518,-0.0892313
4/4/2022 0:00,"32, Lynbridge Gardens",N13 5BH,Semi-detached house,Old stock,Freehold,4,775000,51.6179881,-0.0991526
4/1/2022 0:00,"132, Princes Avenue",N13 6HD,Terraced house,Old stock,Freehold,3,540000,51.6116908,-0.1039127
3/31/2022 0:00,"72, Connaught Gardens",N13 5BT,Semi-detached house,Old stock,Freehold,3,650000,51.6197493,-0.0956909
3/31/2022 0:00,"151, Fox Lane",N13 4AU,Detached house,Old stock,Freehold,5,1325500,51.6259796,-0.115626
3/25/2022 0:00,"82, Hoppers Road",N21 3LH,Terraced house,Old stock,Freehold,2,522000,51.6256751,-0.1046658
3/25/2022 0:00,"1, Derwent Road",N13 4PY,Semi-detached house,Old stock,Freehold,4,1337500,51.6203173,-0.1158938
3/25/2022 0:00,"9, Dorchester Avenue",N13 5DZ,Terraced house,Old stock,Freehold,4,665000,51.6172454,-0.0892776
3/25/2022 0:00,"7, The Rowans",N13 5AD,Semi-detached house,Old stock,Freehold,3,645000,51.6220229,-0.0943737
3/24/2022 0:00,"74, Farndale Avenue",N13 5AG,Semi-detached house,Old stock,Freehold,3,625000,51.6230101,-0.094354
3/23/2022 0:00,"36, Fox Lane",N13 4AL,Terraced house,Old stock,Freehold,4,950000,51.6227901,-0.1108325
3/22/2022 0:00,"1, Spencer Avenue",N13 4TS,Terraced house,Old stock,Freehold,4,755000,51.6089968,-0.1139086
3/18/2022 0:00,"16, Hawthorn Avenue",N13 4JT,Terraced house,Old stock,Freehold,4,811000,51.6152866,-0.118489
3/18/2022 0:00,"2, Hamilton Crescent",N13 5LW,Flat,Old stock,Leasehold,2,466000,51.6164291,-0.1041001
3/11/2022 0:00,"7, Melbourne Avenue",N13 4SY,Terraced house,Old stock,Leasehold,2,460000,51.6108115,-0.1105429
3/10/2022 0:00,"270, Princes Avenue",N13 6HN,Terraced house,Old stock,Freehold,3,550000,51.6131368,-0.0969237
3/4/2022 0:00,"50, Hamilton Crescent",N13 5LW,Terraced house,Old stock,Freehold,4,775000,51.6169471,-0.1020407
3/4/2022 0:00,"17, Windsor Road",N13 5PP,Semi-detached house,Old stock,Freehold,4,882500,51.6213976,-0.1042119
3/1/2022 0:00,"31, Hawthorn Avenue",N13 4JU,Terraced house,Old stock,Freehold,4,800000,51.6152161,-0.116979
2/25/2022 0:00,"23, Millstream Close",N13 6EF,Flat,Old stock,Leasehold,1,195000,51.612996,-0.1024536
2/25/2022 0:00,"21, Park Avenue, Palmers Green",N13 5PG,Terraced house,Old stock,Freehold,4,876500,51.6204824,-0.1042661
2/24/2022 0:00,"21, Hazelwood Lane",N13 5EZ,Terraced house,Old stock,Freehold,4,744255,51.6191623,-0.1043957
2/24/2022 0:00,"124, Cherry Blossom Close",N13 6BZ,Flat,Old stock,Leasehold,1,250000,51.6152743,-0.0960317
2/22/2022 0:00,"24, Arnold Gardens",N13 5JE,Flat,Old stock,Leasehold,1,290000,51.61558,-0.101529
2/10/2022 0:00,"9, Oakthorpe Road",N13 5HY,Semi-detached house,Old stock,Freehold,3,525000,51.6143989,-0.1050284
1/31/2022 0:00,"16, Upsdell Avenue",N13 6JN,Semi-detached house,Old stock,Freehold,3,675000,51.6094151,-0.108602
1/31/2022 0:00,"94, Hazelwood Lane",N13 5HB,Flat,Old stock,Leasehold,3,406000,51.618981,-0.1031899
1/28/2022 0:00,"70, Pellipar Close",N13 4AG,Flat,Old stock,Leasehold,2,307500,51.6213932,-0.1062925
1/28/2022 0:00,"15, Crestbrook Avenue",N13 5RR,Terraced house,Old stock,Freehold,3,718000,51.6242189,-0.1000045
1/28/2022 0:00,"25, Broomfield Lane",N13 4HB,Semi-detached house,Old stock,Freehold,4,950000,51.6167928,-0.1158337
1/27/2022 0:00,"5a, Park Avenue, Palmers Green",N13 5PG,Flat,Old stock,Leasehold,3,500000,51.6206049,-0.1052345
1/25/2022 0:00,"69, Cranford Avenue",N13 4NY,Semi-detached house,Old stock,Freehold,3,755000,51.6139621,-0.116651
1/21/2022 0:00,"28a, Belsize Avenue",N13 4TJ,Flat,Old stock,Leasehold,1,358888,51.6097504,-0.1117082
1/11/2022 0:00,"94a, Park Avenue, Palmers Green",N13 5PN,Flat,Old stock,Leasehold,2,440000,51.620359,-0.1016589
1/7/2022 0:00,"81, Munster Gardens",N13 5DU,Terraced house,Old stock,Freehold,3,548000,51.6191024,-0.0945712
1/7/2022 0:00,"70, Hoppers Road",N21 3LH,Terraced house,Old stock,Freehold,2,492500,51.6254001,-0.1048157
1/6/2022 0:00,"21b, Lodge Drive",N13 5LA,Terraced house,Old stock,Leasehold,1,335000,51.6179007,-0.1051436
12/17/2021 0:00,"73, Lakeside Road",N13 4PS,Semi-detached house,Old stock,Leasehold,6,1100000,51.6220687,-0.1124893
12/17/2021 0:00,"22, Riverway",N13 5LJ,Terraced house,Old stock,Freehold,3,732000,51.615582,-0.1058159
12/17/2021 0:00,"Flat 36, Hertford Court, Green Lanes",N13 4DD,Flat,Old stock,Leasehold,2,365000,51.6239381,-0.1035875
12/16/2021 0:00,"32, Elmdale Road",N13 4UL,Flat,Old stock,Leasehold,2,348370,51.6134121,-0.111233
12/13/2021 0:00,"69, Cherry Blossom Close",N13 6BT,Flat,Old stock,Leasehold,2,300000,51.6150847,-0.0965897
12/13/2021 0:00,"19, Wilde Place",N13 6DU,Terraced house,Old stock,Freehold,3,460000,51.6103428,-0.1012404
12/2/2021 0:00,"33, Amberley Road",N13 4BH,Semi-detached house,Old stock,Freehold,5,1360000,51.6272603,-0.1140666
11/26/2021 0:00,"200, Millicent Grove",N13 6HS,Flat,Old stock,Leasehold,2,326500,51.6143478,-0.0988773
11/25/2021 0:00,"35a, Moffat Road",N13 4SA,Flat,Old stock,Leasehold,2,470000,51.6111637,-0.1184138
11/11/2021 0:00,"21a, Hardwicke Road",N13 4SL,Flat,Old stock,Leasehold,2,465000,51.6116413,-0.1205036
11/9/2021 0:00,"44, Kingsley Road",N13 5PL,Terraced house,Old stock,Freehold,4,852000,51.6194978,-0.1013587
11/8/2021 0:00,"Flat 1, Lindsey Court, Green Lanes",N13 5SD,Flat,Old stock,Leasehold,2,325000,51.6236922,-0.1025724
11/3/2021 0:00,"262, Princes Avenue",N13 6HN,Flat,Old stock,Leasehold,1,330000,51.61302,-0.0973273
11/3/2021 0:00,"609, Green Lanes",N13 4EP,Semi-detached house,Old stock,Freehold,4,715000,51.6262966,-0.0994587
11/3/2021 0:00,"85, Park Avenue, Palmers Green",N13 5PH,Flat,Old stock,Leasehold,2,415000,51.6200352,-0.101022
10/22/2021 0:00,"50, Pellipar Close",N13 4AG,Flat,Old stock,Leasehold,2,316000,51.6213932,-0.1062925
10/18/2021 0:00,"5, Melbourne Avenue",N13 4SY,Terraced house,Old stock,Freehold,4,685000,51.6108116,-0.1104508
10/4/2021 0:00,"5, Medesenge Way",N13 6DZ,Flat,Old stock,Leasehold,1,230000,51.6096801,-0.0998601
9/30/2021 0:00,"7, Pembroke Road",N13 5NR,Terraced house,Old stock,Freehold,3,463000,51.6209183,-0.0865823
9/30/2021 0:00,"21, Livingstone Road",N13 4SD,Terraced house,Old stock,Freehold,6,715000,51.6116558,-0.1197987
9/30/2021 0:00,"81, Rayleigh Road",N13 5QW,Terraced house,Old stock,Freehold,4,625000,51.6241274,-0.0855784
9/30/2021 0:00,"31, Livingstone Road",N13 4SD,Terraced house,Old stock,Freehold,2,520000,51.6114707,-0.119821
9/30/2021 0:00,"7, Cherry Blossom Close",N13 6BQ,Flat,Old stock,Leasehold,1,225000,51.6146198,-0.0956671
9/30/2021 0:00,"85, Hazelwood Lane",N13 5HQ,Terraced house,Old stock,Freehold,3,675200,51.6174517,-0.101253
9/29/2021 0:00,"5a, Broomfield Avenue",N13 4JJ,Flat,Old stock,Leasehold,2,500000,51.6180177,-0.112012
9/29/2021 0:00,"42a, Kingsley Road",N13 5PL,Flat,Old stock,Leasehold,1,318000,51.6194258,-0.1013469
9/28/2021 0:00,"48a, Grovelands Road",N13 4RH,Flat,Old stock,Leasehold,5,700000,51.6207259,-0.1115055
9/28/2021 0:00,"94, Derwent Road",N13 4PX,Terraced house,Old stock,Freehold,4,1140000,51.6227367,-0.1129415
9/28/2021 0:00,"18, St Georges Road",N13 4AS,Semi-detached house,Old stock,Freehold,6,1029000,51.625647,-0.1128496
9/28/2021 0:00,"62, Lightcliffe Road",N13 5PW,Flat,Old stock,Leasehold,1,385000,51.6210632,-0.1018317
9/27/2021 0:00,"119, Fox Lane",N13 4AP,Flat,Old stock,Leasehold,2,310000,51.624557,-0.1138673
9/27/2021 0:00,"163, Connaught Gardens",N13 5BU,Terraced house,Old stock,Freehold,4,690000,51.6202092,-0.0947353
9/27/2021 0:00,"14a, Park Avenue, Palmers Green",N13 5PF,Flat,Old stock,Leasehold,2,500000,51.620852,-0.1049128
9/24/2021 0:00,"12a, Crothall Close",N13 4BN,Detached house,Old stock,Freehold,4,683500,51.625123,-0.1123057
9/17/2021 0:00,"27, Livingstone Road",N13 4SD,Terraced house,Old stock,Freehold,2,580000,51.6115307,-0.119762
9/15/2021 0:00,"20, Cranford Avenue",N13 4PA,Semi-detached house,Old stock,Freehold,3,776500,51.6146541,-0.1183873
9/10/2021 0:00,"41, Hawthorn Avenue",N13 4JS,Terraced house,Old stock,Freehold,4,730000,51.6150729,-0.1162869
9/6/2021 0:00,"593, Green Lanes",N13 4EB,Flat,Old stock,Leasehold,2,280000,51.6257616,-0.0998256
8/27/2021 0:00,"4, The Rowans",N13 5AD,Terraced house,Old stock,Freehold,3,495000,51.621887,-0.0943679
8/26/2021 0:00,"26, Livingstone Road",N13 4SD,Terraced house,Old stock,Freehold,3,620000,51.6114403,-0.119429
8/26/2021 0:00,"56, Hamilton Crescent",N13 5LW,Semi-detached house,Old stock,Freehold,3,275000,51.6171637,-0.1019427
8/24/2021 0:00,"57, North Circular Road",N13 5EQ,Terraced house,Old stock,Freehold,3,500000,51.6167516,-0.0896907
8/23/2021 0:00,"34, Medesenge Way",N13 6DY,Flat,Old stock,Leasehold,2,297000,51.6096045,-0.1007462
8/19/2021 0:00,"60, Hamilton Crescent",N13 5LW,Terraced house,Old stock,Freehold,3,680000,51.6172045,-0.1016614
8/17/2021 0:00,"91, North Circular Road",N13 5EH,Terraced house,Old stock,Freehold,3,490000,51.6166547,-0.0914699
8/16/2021 0:00,"97, Medesenge Way",N13 6DZ,Flat,Old stock,Leasehold,1,239000,51.6096803,-0.0998764
7/29/2021 0:00,"4, Riverway",N13 5LJ,Terraced house,Old stock,Freehold,4,722000,51.6152649,-0.1064295
7/23/2021 0:00,"1, Medesenge Way",N13 6DZ,Terraced house,Old stock,Freehold,2,452250,51.6100127,-0.1011802
6/30/2021 0:00,"43, Ecclesbourne Gardens",N13 5JD,Terraced house,Old stock,Freehold,3,662000,51.6145573,-0.1069629
6/30/2021 0:00,"90a, Riverway",N13 5JX,Flat,Old stock,Leasehold,1,340000,51.6173666,-0.1044042
6/30/2021 0:00,"1, Pymmes Road",N13 4RY,Terraced house,Old stock,Freehold,3,610000,51.6119048,-0.1175412
6/30/2021 0:00,"13, Lytton Avenue",N13 4EH,Terraced house,Old stock,Freehold,1,765000,51.6268095,-0.101028
6/30/2021 0:00,"Flat 15, Hazelwood House, New River Crescent",N13 5RE,Flat,Old stock,Leasehold,2,347500,51.6180177,-0.1007081
6/30/2021 0:00,"50, Avondale Road",N13 4DU,Terraced house,Old stock,Leasehold,2,413000,51.626456,-0.1030914
6/30/2021 0:00,"42, Hoppers Road",N13 4DB,Terraced house,Old stock,Freehold,2,630000,51.6270856,-0.1040239
6/30/2021 0:00,"11, The Crest",N13 5JT,Terraced house,Old stock,Freehold,3,750000,51.6187951,-0.1050929
6/29/2021 0:00,"53, Hardwicke Road",N13 4SL,Terraced house,Old stock,Freehold,6,845000,51.6108736,-0.120625
6/29/2021 0:00,"13, Elvendon Road",N13 4SJ,Terraced house,Old stock,Freehold,5,890000,51.6103819,-0.1188023
6/29/2021 0:00,"25a, Hardwicke Road",N13 4SL,Flat,Old stock,Leasehold,1,435000,51.6115523,-0.1204897
6/29/2021 0:00,"27a, Caversham Avenue",N13 4LL,Flat,Old stock,Leasehold,3,530000,51.6229891,-0.1085051
6/29/2021 0:00,"159, Powys Lane",N13 4NS,Semi-detached house,Old stock,Freehold,4,708000,51.6135931,-0.1211213
6/29/2021 0:00,"278, Firs Lane",N13 5QJ,Semi-detached house,Old stock,Freehold,3,620000,51.6236926,-0.0894481
6/28/2021 0:00,"32, The Fairway, Palmers Green",N13 5NF,Semi-detached house,Old stock,Freehold,4,615000,51.6223821,-0.0849042
6/28/2021 0:00,"6, Ridgemead Close",N14 6NW,Detached house,Old stock,Freehold,5,1200000,51.6272272,-0.1173481
6/28/2021 0:00,"10, Melbourne Avenue",N13 4SX,Terraced house,Old stock,Freehold,3,681000,51.6110793,-0.1105141
6/28/2021 0:00,"47, Dorchester Avenue",N13 5DY,Terraced house,Old stock,Freehold,3,525000,51.6183129,-0.0912282
6/28/2021 0:00,"8b, Stonard Road",N13 4DP,Flat,Old stock,Leasehold,2,390000,51.6246896,-0.1026798
6/25/2021 0:00,"77, Derwent Road",N13 4QA,Semi-detached house,Old stock,Leasehold,2,475100,51.6224855,-0.1138405
6/25/2021 0:00,"4a, Elvendon Road",N13 4SJ,Flat,Old stock,Leasehold,2,500000,51.6106275,-0.1182531
6/25/2021 0:00,"17, Doveridge Gardens",N13 5BJ,Semi-detached house,Old stock,Freehold,4,855000,51.6176722,-0.0979808
6/24/2021 0:00,"123, Norfolk Avenue",N13 6AL,Terraced house,Old stock,Freehold,3,525000,51.6076853,-0.0956709
6/22/2021 0:00,"26, Kelvin Avenue",N13 4TG,Terraced house,Old stock,Freehold,4,720000,51.6104484,-0.1113872
6/22/2021 0:00,"36, Madeira Road",N13 5SS,Terraced house,Old stock,Freehold,4,693000,51.6204466,-0.0980437
6/21/2021 0:00,"36, Hedge Lane",N13 5SH,Terraced house,Old stock,Freehold,4,655000,51.6226159,-0.1010808
6/19/2021 0:00,"92, Palmerston Crescent",N13 4NH,Flat,Old stock,Leasehold,2,510000,51.6133278,-0.1133298
6/18/2021 0:00,"4, The Larches",N13 5AY,Terraced house,Old stock,Freehold,5,580000,51.6206539,-0.0923714
6/18/2021 0:00,"80, Cherry Blossom Close",N13 6BT,Flat,Old stock,Leasehold,1,198000,51.6150847,-0.0965897
6/18/2021 0:00,"40, New River Crescent",N13 5RF,Terraced house,Old stock,Freehold,4,720000,51.6194949,-0.1002829
6/18/2021 0:00,"7, Fox Lane",N13 4AB,Semi-detached house,Old stock,Freehold,2,595000,51.6213861,-0.1086357
6/16/2021 0:00,"19, River Avenue",N13 5RX,Terraced house,Old stock,Freehold,3,600000,51.6257064,-0.0986817
6/11/2021 0:00,"31a, Palmerston Crescent",N13 4UE,Flat,Old stock,Leasehold,4,365000,51.6144037,-0.1114011
6/4/2021 0:00,"117, Bourne Hill",N13 4BE,Semi-detached house,Old stock,Freehold,4,955000,51.627753,-0.1150831
6/2/2021 0:00,"96, Upsdell Avenue",N13 6JL,Terraced house,Old stock,Freehold,3,618000,51.609549,-0.1043294
5/28/2021 0:00,"20, Caversham Avenue",N13 4LN,Flat,Old stock,Leasehold,1,420000,51.6224581,-0.108383
5/28/2021 0:00,"573, Green Lanes",N13 4EB,Terraced house,Old stock,Freehold,5,710000,51.6252846,-0.1005033
5/28/2021 0:00,"29, Windsor Road",N13 5PP,Semi-detached house,Old stock,Freehold,4,697500,51.6213263,-0.1036151
5/26/2021 0:00,"56, Kelvin Avenue",N13 4TG,Flat,Old stock,Leasehold,2,492000,51.6104579,-0.1127386
5/25/2021 0:00,"66a, Osborne Road",N13 5PU,Terraced house,Old stock,Leasehold,1,325000,51.6216774,-0.1015365
5/24/2021 0:00,"8a, Devonshire Road, Palmers Green",N13 4QX,Flat,Old stock,Leasehold,2,427500,51.6184625,-0.1091904
5/21/2021 0:00,"57, Derwent Road",N13 4QA,Flat,Old stock,Leasehold,2,476000,51.6219005,-0.1143602
5/21/2021 0:00,"96, Fox Lane",N13 4AX,Detached house,Old stock,Freehold,4,972000,51.6250387,-0.1144725
5/20/2021 0:00,"Flat 5, Old Park House, Old Park Road",N13 4RD,Flat,Old stock,Leasehold,2,369000,51.6189544,-0.1110362
5/18/2021 0:00,"14, Avondale Road",N13 4DU,Flat,Old stock,Leasehold,2,410000,51.6254498,-0.1035816
5/18/2021 0:00,"11, St Georges Road",N13 4AT,Terraced house,Old stock,Freehold,6,955000,51.6254612,-0.1134944
5/18/2021 0:00,"67, Old Park Road",N13 4RG,Semi-detached house,Old stock,Freehold,5,1223000,51.6210634,-0.1099497
5/17/2021 0:00,"Flat 5, Hazelwood House, New River Crescent",N13 5RE,Flat,Old stock,Leasehold,2,349950,51.6180177,-0.1007081
5/14/2021 0:00,"93, Caversham Avenue",N13 4LL,Terraced house,Old stock,Freehold,6,880000,51.6248498,-0.1075902
5/12/2021 0:00,"29, Dawlish Avenue",N13 4HP,Detached house,Old stock,Freehold,3,860000,51.6163058,-0.121863
5/12/2021 0:00,"329, Firs Lane",N13 5QF,Terraced house,Old stock,Freehold,3,579000,51.6223754,-0.0907111
5/7/2021 0:00,"104, Aldermans Hill",N13 4PT,Semi-detached house,Old stock,Freehold,6,1265000,51.6198777,-0.1152731
4/30/2021 0:00,"16, Eaton Park Road, Palmers Green",N13 4EL,Flat,Old stock,Leasehold,1,387000,51.626262,-0.1005712
4/30/2021 0:00,"24, Dorchester Avenue",N13 5EA,Terraced house,Old stock,Freehold,3,535000,51.6177258,-0.0896025
4/30/2021 0:00,"85, North Circular Road",N13 5EQ,Terraced house,Old stock,Freehold,4,645000,51.6167506,-0.0909808
4/29/2021 0:00,"41, Moffat Road",N13 4SA,Flat,Old stock,Freehold,4,615000,51.6109992,-0.1183901
4/26/2021 0:00,"29, Coniscliffe Road",N13 5NP,Terraced house,Old stock,Freehold,3,441000,51.6217592,-0.0897414
4/26/2021 0:00,"36, Hawthorn Avenue",N13 4JT,Terraced house,Old stock,Freehold,3,588000,51.6151039,-0.1176076
4/26/2021 0:00,"11, Crothall Close",N13 4BN,Detached house,Old stock,Freehold,4,780000,51.6250909,-0.1120347
4/26/2021 0:00,"555, Green Lanes",N13 4DR,Semi-detached house,Old stock,Freehold,6,785000,51.624747,-0.1012504
4/26/2021 0:00,"162, Tottenhall Road",N13 6DL,Terraced house,Old stock,Freehold,4,650000,51.6113839,-0.0993051
4/22/2021 0:00,"19, Doveridge Gardens",N13 5BJ,Semi-detached house,Old stock,Freehold,4,720000,51.6175994,-0.0978736
4/22/2021 0:00,"34, Ulster Gardens",N13 5DW,Terraced house,Old stock,Freehold,3,529995,51.6178131,-0.0920277
4/21/2021 0:00,"24, Derwent Road",N13 4PU,Semi-detached house,Old stock,Freehold,4,985000,51.6208471,-0.1149007
4/21/2021 0:00,"11, New Park Avenue",N13 5ND,Terraced house,Old stock,Freehold,3,540000,51.6214342,-0.0841418
4/19/2021 0:00,"17, Oaktree Avenue",N13 5RW,Terraced house,Old stock,Freehold,3,660000,51.6236115,-0.1008205
4/12/2021 0:00,"152, New Park Avenue",N13 5LZ,Terraced house,Old stock,Freehold,3,530000,51.6208131,-0.0898766
4/12/2021 0:00,"378, Firs Lane",N13 5LU,Semi-detached house,Old stock,Freehold,3,537000,51.6199695,-0.0908549
4/9/2021 0:00,"30, Lodge Drive",N13 5JZ,Terraced house,Old stock,Freehold,4,887500,51.6180128,-0.1061926
4/9/2021 0:00,"16, Princes Avenue",N13 6HB,Terraced house,Old stock,Freehold,2,425000,51.6115783,-0.108369
4/7/2021 0:00,"122, Tottenhall Road",N13 6DG,Semi-detached house,Old stock,Freehold,2,460000,51.6110975,-0.1011784
4/6/2021 0:00,"84, Hoppers Road",N21 3LH,Semi-detached house,Old stock,Freehold,2,602000,51.6257218,-0.1046265
3/31/2021 0:00,"39, Dorchester Avenue",N13 5DY,Terraced house,Old stock,Freehold,4,615000,51.617953,-0.090442
3/31/2021 0:00,"131, Princes Avenue",N13 6HE,Terraced house,Old stock,Freehold,4,600000,51.6119286,-0.1031743
3/31/2021 0:00,"172, Princes Avenue",N13 6HL,Terraced house,Old stock,Freehold,3,625000,51.6117553,-0.1008978
3/29/2021 0:00,"13, Avondale Road",N13 4DX,Terraced house,Old stock,Freehold,3,810000,51.6253313,-0.1040512
3/29/2021 0:00,"79, Bourne Hill",N13 4LU,Terraced house,Old stock,Freehold,3,745000,51.6269379,-0.1129113
3/29/2021 0:00,"14, Arnold Gardens",N13 5JE,Terraced house,Old stock,Freehold,4,580000,51.6153095,-0.1015688
3/26/2021 0:00,"14, Thetford Close",N13 6AT,Terraced house,Old stock,Freehold,2,375000,51.6071494,-0.0967088
3/26/2021 0:00,"291, North Circular Road",N13 5JH,Terraced house,Old stock,Freehold,4,277499,51.6139738,-0.1039018
3/26/2021 0:00,"40, Madeira Road",N13 5SS,Terraced house,Old stock,Freehold,4,667000,51.6203335,-0.0980318
3/26/2021 0:00,"28, Cranley Gardens",N13 4LS,Terraced house,Old stock,Freehold,5,1120000,51.6243433,-0.1103661
3/26/2021 0:00,"83, Dorchester Avenue",N13 5DY,Terraced house,Old stock,Freehold,3,515000,51.618994,-0.0925567
3/26/2021 0:00,"39c, Palmerston Crescent",N13 4UE,Flat,Old stock,Leasehold,2,370000,51.6142105,-0.1115667
3/25/2021 0:00,"23, Belsize Avenue",N13 4TL,Terraced house,Old stock,Freehold,4,760000,51.6094533,-0.1116435
3/25/2021 0:00,"27, Hedge Lane",N13 5SJ,Terraced house,Old stock,Freehold,3,530000,51.6230434,-0.1017676
3/24/2021 0:00,"100, The Larches",N13 5QE,Semi-detached house,Old stock,Freehold,4,570000,51.6235887,-0.0908764
3/24/2021 0:00,"22, Meadowcroft Road",N13 4EA,Flat,Old stock,Leasehold,1,410000,51.6255231,-0.1017369
3/24/2021 0:00,"58, Old Park Road",N13 4RE,Semi-detached house,Old stock,Freehold,5,1185000,51.620989,-0.1094622
3/22/2021 0:00,"112, New River Crescent",N13 5RJ,Terraced house,Old stock,Freehold,3,710000,51.6209689,-0.100615
3/22/2021 0:00,"7, Franlaw Crescent",N13 5EB,Terraced house,Old stock,Freehold,5,680000,51.617205,-0.088356
3/22/2021 0:00,"12, Madeira Road",N13 5SS,Terraced house,Old stock,Freehold,4,605000,51.6212051,-0.0977068
3/22/2021 0:00,"39, Wentworth Gardens",N13 5SW,Semi-detached house,Old stock,Freehold,4,735000,51.6202401,-0.099103
3/19/2021 0:00,"21a, Elmwood Avenue",N13 4HG,Flat,Old stock,Leasehold,2,405000,51.6157286,-0.1175028
3/19/2021 0:00,"69, Park Avenue, Palmers Green",N13 5PH,Terraced house,Old stock,Freehold,3,735000,51.620119,-0.1019136
3/19/2021 0:00,"110, Ash Grove",N13 5AP,Terraced house,Old stock,Freehold,3,450000,51.6237406,-0.092144
3/19/2021 0:00,"55b, Fox Lane",N13 4AJ,Flat,Old stock,Leasehold,2,250000,51.6225511,-0.1112478
3/19/2021 0:00,"21a, Elmwood Avenue",N13 4HG,Flat,Old stock,Leasehold,2,405000,51.6157286,-0.1175028
3/18/2021 0:00,"129, Connaught Gardens",N13 5BU,Terraced house,Old stock,Freehold,4,650000,51.6191326,-0.0954123
3/18/2021 0:00,"72, Cranley Gardens",N13 4LS,Terraced house,Old stock,Leasehold,2,515000,51.6256023,-0.1096215
3/17/2021 0:00,"10, The Rise",N13 5LE,Terraced house,Old stock,Freehold,3,630000,51.617183,-0.1059456
3/17/2021 0:00,"89, Ash Grove",N13 5AW,Semi-detached house,Old stock,Freehold,3,545000,51.6245335,-0.0924695
3/15/2021 0:00,"39, Hawthorn Avenue",N13 4JS,Terraced house,Old stock,Freehold,3,710000,51.6151139,-0.1163793
3/12/2021 0:00,"39, Pilgrims Close",N13 4HY,Flat,Old stock,Leasehold,1,205000,51.6175542,-0.1121027
3/12/2021 0:00,"110, New River Crescent",N13 5RJ,Terraced house,Old stock,Freehold,3,610000,51.6209277,-0.1006149
3/12/2021 0:00,"28, Kenmare Gardens",N13 5DN,Terraced house,Old stock,Freehold,3,568000,51.6170912,-0.0936956
3/10/2021 0:00,"11, Lytton Avenue",N13 4EH,Terraced house,Old stock,Freehold,3,590000,51.6267787,-0.100878
3/10/2021 0:00,"38, Derwent Road",N13 4PU,Flat,Old stock,Leasehold,2,490000,51.6212119,-0.1144511
3/10/2021 0:00,"34, Park Avenue, Palmers Green",N13 5PF,Flat,Old stock,Leasehold,1,385000,51.6207376,-0.1039091
3/6/2021 0:00,"78, Connaught Gardens",N13 5BT,Semi-detached house,Old stock,Freehold,3,580000,51.6199363,-0.0954664
3/5/2021 0:00,"40, Riverway",N13 5LJ,Terraced house,Old stock,Freehold,4,685000,51.6158853,-0.1051821
3/4/2021 0:00,"42, Palmerston Crescent",N13 4UA,Semi-detached house,Old stock,Freehold,4,770000,51.6144054,-0.1118661
3/4/2021 0:00,"105, Broomfield Avenue",N13 4JR,Terraced house,Old stock,Freehold,3,648000,51.6152221,-0.114861
3/3/2021 0:00,"18, New Park Avenue",N13 5NB,Terraced house,Old stock,Freehold,4,565501,51.6213927,-0.0847407
3/3/2021 0:00,"Flat 24, Hertford Court, Green Lanes",N13 4DD,Flat,Old stock,Leasehold,2,405000,51.6153713,-0.1100755
3/2/2021 0:00,"27, Berkshire Gardens",N13 6AA,Terraced house,Old stock,Freehold,3,598000,51.6088809,-0.1081392
3/1/2021 0:00,"41, Medesenge Way",N13 6DZ,Flat,Old stock,Leasehold,2,285000,51.6096801,-0.0998601
3/1/2021 0:00,"50, Devonshire Road, Palmers Green",N13 4QX,Flat,Old stock,Leasehold,1,405000,51.6194235,-0.1082729
2/26/2021 0:00,"141, Connaught Gardens",N13 5BU,Terraced house,Old stock,Freehold,3,585000,51.6195147,-0.0952742
2/26/2021 0:00,"41, Ash Grove",N13 5AE,Terraced house,Old stock,Freehold,3,800000,51.6223964,-0.0933426
2/26/2021 0:00,"33, Chequers Way",N13 6DA,Terraced house,Old stock,Freehold,4,555000,51.6133015,-0.0939084
2/26/2021 0:00,"141, Princes Avenue",N13 6HE,Terraced house,Old stock,Freehold,4,672000,51.6119023,-0.1026982
2/26/2021 0:00,"97, River Avenue",N13 5RP,Semi-detached house,Old stock,Freehold,4,775000,51.623201,-0.0998049
2/26/2021 0:00,"129a, Hazelwood Lane",N13 5HH,Flat,Old stock,Leasehold,2,410084,51.6167208,-0.0989243
2/26/2021 0:00,"148, Hazelwood Lane",N13 5HJ,Terraced house,Old stock,Freehold,4,635000,51.6170644,-0.099357
2/25/2021 0:00,"2, Caversham Avenue",N13 4LN,Flat,Old stock,Leasehold,3,380000,51.6219215,-0.1090198
2/25/2021 0:00,"106, Broomfield Avenue",N13 4JP,Terraced house,Old stock,Freehold,4,756000,51.6151828,-0.1154326
2/25/2021 0:00,"44, Dorchester Avenue",N13 5DX,Terraced house,Old stock,Freehold,3,511000,51.618242,-0.0903982
2/24/2021 0:00,"78a, Burford Gardens",N13 4LP,Flat,Old stock,Leasehold,2,416500,51.6248777,-0.1085251
2/24/2021 0:00,"204, Millicent Grove",N13 6HS,Flat,Old stock,Leasehold,2,325000,51.6143478,-0.0988773
2/23/2021 0:00,"66, Ash Grove",N13 5AR,Terraced house,Old stock,Freehold,3,525000,51.6224972,-0.0927162
2/22/2021 0:00,"53, Avondale Road",N13 4DX,Terraced house,Old stock,Freehold,3,695000,51.6264189,-0.1034799
2/19/2021 0:00,"2, Caversham Avenue",N13 4LN,Terraced house,Old stock,Leasehold,3,470000,51.6219215,-0.1090198
2/19/2021 0:00,"29a, Spencer Avenue",N13 4TS,Flat,Old stock,Leasehold,1,486000,51.6087439,-0.1124469
2/19/2021 0:00,"33, The Grove",N13 5LQ,Terraced house,Old stock,Freehold,3,738000,51.6164908,-0.1064634
2/19/2021 0:00,"56, Mitchell Road",N13 6EE,Terraced house,Old stock,Freehold,3,455000,51.6155221,-0.0928392
2/19/2021 0:00,"161, New Park Avenue",N13 5NA,Terraced house,Old stock,Freehold,3,470000,51.6205234,-0.0895267
2/16/2021 0:00,"47, Derwent Road",N13 4PY,Semi-detached house,Old stock,Freehold,4,1010000,51.6216553,-0.1146545
2/15/2021 0:00,"67, Caversham Avenue",N13 4LL,Terraced house,Old stock,Freehold,5,945000,51.6241251,-0.1078472
2/15/2021 0:00,"22, Rayleigh Road",N13 5QR,Semi-detached house,Old stock,Freehold,4,660000,51.6237148,-0.0868116
2/12/2021 0:00,"24, Wentworth Gardens",N13 5SN,Terraced house,Old stock,Freehold,3,660000,51.6211137,-0.0995555
2/12/2021 0:00,"85, New Park Avenue",N13 5NA,Terraced house,Old stock,Freehold,3,455000,51.6201794,-0.0862734
2/12/2021 0:00,"51, Amberley Road",N13 4BH,Semi-detached house,Old stock,Freehold,4,1300000,51.6266842,-0.1143409
2/12/2021 0:00,"25, Kingsley Road",N13 5PJ,Terraced house,Old stock,Freehold,2,397500,51.6195055,-0.1017597
2/10/2021 0:00,"248, Princes Avenue",N13 6HN,Terraced house,Old stock,Freehold,3,505000,51.6128481,-0.0979133
2/10/2021 0:00,"98a, Hazelwood Lane",N13 5HF,Flat,Old stock,Leasehold,1,368000,51.6182772,-0.1021738
2/8/2021 0:00,"65, Munster Gardens",N13 5DU,Terraced house,Old stock,Freehold,3,520000,51.6186087,-0.0947539
2/5/2021 0:00,"20d, Sidney Avenue",N13 4UY,Flat,Old stock,Leasehold,1,245000,51.6118599,-0.1114815
2/5/2021 0:00,"135, Broomfield Avenue",N13 4JR,Terraced house,Old stock,Freehold,3,620000,51.6144361,-0.1155928
1/29/2021 0:00,"325, North Circular Road",N13 5JH,Flat,Old stock,Leasehold,2,326000,51.6134568,-0.1053421
1/29/2021 0:00,"20, Madeira Road",N13 5SS,Terraced house,Old stock,Freehold,3,567500,51.6209815,-0.0978152
1/29/2021 0:00,"27, Fox Lane",N13 4AB,Terraced house,Old stock,Freehold,5,970000,51.6218945,-0.1098294
1/28/2021 0:00,"89, Rayleigh Road",N13 5QW,Terraced house,Old stock,Freehold,3,439995,51.6240762,-0.0852903
1/25/2021 0:00,"29, Belmont Avenue",N13 4HD,Terraced house,Old stock,Freehold,5,840000,51.6156587,-0.1165544
1/22/2021 0:00,"69a, Grovelands Road",N13 4RJ,Flat,Old stock,Leasehold,2,485000,51.6216293,-0.1110694
1/22/2021 0:00,"102, The Fairway, Palmers Green",N13 5QL,Terraced house,Old stock,Freehold,3,560000,51.6233539,-0.0885369
1/22/2021 0:00,"60, Devonshire Road, Palmers Green",N13 4QX,Flat,Old stock,Leasehold,1,369000,51.6196049,-0.108054
1/22/2021 0:00,"47, Crothall Close",N13 4BN,Detached house,Old stock,Freehold,4,700000,51.6246334,-0.1113951
1/22/2021 0:00,"68, Kelvin Avenue",N13 4TG,Terraced house,Old stock,Freehold,4,630000,51.6104387,-0.1133526
1/22/2021 0:00,"82, Caversham Avenue",N13 4LN,Flat,Old stock,Leasehold,2,435000,51.6243021,-0.1073135
1/21/2021 0:00,"32, Lynbridge Gardens",N13 5BH,Semi-detached house,Old stock,Freehold,4,639000,51.6179881,-0.0991526
1/20/2021 0:00,"16, New River Crescent",N13 5RF,Terraced house,Old stock,Freehold,4,795000,51.618787,-0.1001615
1/20/2021 0:00,"67, Kelvin Avenue",N13 4TH,Flat,Old stock,Leasehold,2,460000,51.6101892,-0.1134496
1/19/2021 0:00,"5, The Larches",N13 5AZ,Terraced house,Old stock,Freehold,4,685000,51.6207799,-0.0927911
1/18/2021 0:00,"17, Avondale Road",N13 4DX,Terraced house,Old stock,Freehold,4,825000,51.6254397,-0.1040095
1/15/2021 0:00,"60, Fox Lane",N13 4AR,Flat,Old stock,Leasehold,1,440100,51.623617,-0.1116457
1/14/2021 0:00,"95, Thetford Close",N13 6AU,Terraced house,Old stock,Freehold,3,420000,51.6078395,-0.0975736
1/8/2021 0:00,"10, Millstream Close",N13 6EF,Flat,Old stock,Leasehold,1,230000,51.6129486,-0.1023182
1/8/2021 0:00,"7, Wentworth Gardens",N13 5SW,Terraced house,Old stock,Freehold,3,719000,51.621636,-0.0993826
1/4/2021 0:00,"15, Palmerston Crescent",N13 4UE,Terraced house,Old stock,Freehold,4,752750,51.6145265,-0.1104648
12/18/2020 0:00,"15, Avondale Road",N13 4DX,Terraced house,Old stock,Freehold,3,610000,51.6254211,-0.1040195
12/18/2020 0:00,"21, Park Avenue, Palmers Green",N13 5PG,Terraced house,Old stock,Freehold,4,831500,51.6205216,-0.1042031
12/18/2020 0:00,"40, Lakeside Road",N13 4PR,Semi-detached house,Old stock,Freehold,4,1080000,51.6210291,-0.1129467
12/18/2020 0:00,"48, New River Crescent",N13 5RF,Flat,Old stock,Leasehold,2,496500,51.619758,-0.1004035
12/17/2020 0:00,"62, Farndale Avenue",N13 5AG,Semi-detached house,Old stock,Freehold,3,580000,51.6226266,-0.0945928
12/14/2020 0:00,"22a, Windsor Road",N13 5PR,Flat,Old stock,Leasehold,2,494950,51.6216353,-0.1039484
12/11/2020 0:00,"36, Lightcliffe Road",N13 5PW,Terraced house,Old stock,Freehold,3,725000,51.6207415,-0.1019739
12/11/2020 0:00,"21a, Lodge Drive",N13 5LA,Flat,Old stock,Leasehold,1,400000,51.6179042,-0.1051982
12/11/2020 0:00,"68, Fox Lane",N13 4AR,Flat,Old stock,Leasehold,2,505000,51.6238142,-0.1119459
12/10/2020 0:00,"70, Hawthorn Avenue",N13 4JT,Terraced house,Old stock,Freehold,4,750000,51.6147714,-0.116002
12/9/2020 0:00,"52, Meadowcroft Road",N13 4EA,Flat,Old stock,Leasehold,2,460000,51.625656,-0.1034746
12/8/2020 0:00,"24, Old Park Road",N13 4RE,Semi-detached house,Old stock,Freehold,4,1065000,51.6199524,-0.1103833
12/8/2020 0:00,"52, Ecclesbourne Gardens",N13 5HZ,Terraced house,Old stock,Freehold,3,599950,51.6142642,-0.1064504
12/4/2020 0:00,"5, St Georges Road",N13 4AT,Semi-detached house,Old stock,Leasehold,1,419000,51.6252688,-0.1134999
12/4/2020 0:00,"33, Hamilton Crescent",N13 5LN,Terraced house,Old stock,Freehold,4,710000,51.6170681,-0.1025059
12/4/2020 0:00,"8, Melbourne Avenue",N13 4SX,Terraced house,Old stock,Leasehold,3,647000,51.6109343,-0.1100734
12/4/2020 0:00,"27, Meadowcroft Road",N13 4DT,Terraced house,Old stock,Freehold,5,840000,51.6253854,-0.1025597
11/30/2020 0:00,"16, Mitchell Road",N13 6EE,Terraced house,Old stock,Freehold,4,479000,51.6153664,-0.0947015
11/26/2020 0:00,"38, Ash Grove",N13 5AR,Terraced house,Old stock,Freehold,3,542000,51.6217315,-0.0932066
11/19/2020 0:00,"56, Derwent Road",N13 4PX,Semi-detached house,Old stock,Freehold,4,950000,51.6217104,-0.1140656
11/18/2020 0:00,"128, Princes Avenue",N13 6HD,Terraced house,Old stock,Freehold,3,525000,51.6117262,-0.1035651
11/18/2020 0:00,"30, Belsize Avenue",N13 4TJ,Terraced house,Old stock,Freehold,4,800000,51.6097503,-0.1118004
11/16/2020 0:00,"23, Wilde Place",N13 6DU,Terraced house,Old stock,Freehold,3,445000,51.6101046,-0.1014529
11/12/2020 0:00,"192, Millicent Grove",N13 6HS,Flat,Old stock,Leasehold,2,305000,51.6143478,-0.0988773
11/11/2020 0:00,"315, Firs Lane",N13 5QF,Terraced house,Old stock,Freehold,3,530000,51.6227562,-0.0904318
11/10/2020 0:00,"15, Crawford Gardens",N13 5TA,Terraced house,Old stock,Freehold,4,640100,51.622832,-0.0984208
11/6/2020 0:00,"39, Meadowcroft Road",N13 4DT,Terraced house,Old stock,Freehold,5,687500,51.6255017,-0.1030401
11/6/2020 0:00,"2, Norfolk Close",N13 6AN,Terraced house,Old stock,Freehold,3,453000,51.6087987,-0.0962407
11/5/2020 0:00,"4, Caversham Avenue",N13 4LN,Terraced house,Old stock,Freehold,4,800000,51.6218768,-0.1091195
11/3/2020 0:00,"46, Hoppers Road",N13 4DB,Terraced house,Old stock,Leasehold,3,630000,51.6247082,-0.1050077
11/3/2020 0:00,"20, Caversham Avenue",N13 4LN,Flat,Old stock,Leasehold,1,400000,51.6224694,-0.1084361
11/3/2020 0:00,"46, Hoppers Road",N13 4DB,Terraced house,Old stock,Freehold,3,630000,51.6247082,-0.1050077
10/30/2020 0:00,"14, Wilde Place",N13 6DU,Terraced house,Old stock,Freehold,3,500000,51.6103246,-0.1014376
10/30/2020 0:00,"15a, Belmont Avenue",N13 4HD,Flat,Old stock,Leasehold,2,485000,51.6160417,-0.1161095
10/30/2020 0:00,"241, Princes Avenue",N13 6HH,Terraced house,Old stock,Freehold,3,550000,51.6130937,-0.098074
10/22/2020 0:00,"15, Lytton Avenue",N13 4EH,Flat,Old stock,Leasehold,1,410000,51.6268681,-0.1011575
10/22/2020 0:00,"73, Dorchester Avenue",N13 5DY,Terraced house,Old stock,Freehold,3,495000,51.6187958,-0.0922201
10/22/2020 0:00,"75, Lakeside Road",N13 4PS,Terraced house,Old stock,Leasehold,3,430000,51.6221341,-0.1124459
10/22/2020 0:00,"111, Farndale Avenue",N13 5AJ,Semi-detached house,Old stock,Freehold,3,485000,51.6246145,-0.0941059
10/21/2020 0:00,"8, Russell Road",N13 4RP,Terraced house,Old stock,Freehold,2,425000,51.610071,-0.1163272
10/21/2020 0:00,"61, Park Avenue, Palmers Green",N13 5PH,Terraced house,Old stock,Freehold,3,667000,51.6201616,-0.1021834
10/19/2020 0:00,"94, New River Crescent",N13 5RJ,Terraced house,Old stock,Freehold,3,600000,51.620569,-0.1007266
10/16/2020 0:00,"28, Lightcliffe Road",N13 5HD,Flat,Old stock,Leasehold,2,493000,51.6198028,-0.1024025
10/16/2020 0:00,"13, Lightcliffe Road",N13 5HD,Terraced house,Old stock,Freehold,5,640000,51.6191361,-0.1034429
10/9/2020 0:00,"34, Caversham Avenue",N13 4LN,Terraced house,Old stock,Freehold,4,886700,51.622947,-0.1080093
10/9/2020 0:00,"69, Ash Grove",N13 5AE,Semi-detached house,Old stock,Freehold,3,500000,51.6234857,-0.092838
10/6/2020 0:00,"79, Princes Avenue",N13 6HA,Terraced house,Old stock,Freehold,2,420000,51.6119261,-0.105939
10/5/2020 0:00,"28, Princes Avenue",N13 6HB,Terraced house,Old stock,Freehold,2,615000,51.6117308,-0.1077648
9/30/2020 0:00,"13, Callard Avenue",N13 5HW,Terraced house,Old stock,Freehold,4,416000,51.6160522,-0.0988959
9/18/2020 0:00,"64, The Grove",N13 5JR,Terraced house,Old stock,Freehold,3,667250,51.6192443,-0.1056748
9/18/2020 0:00,"140, Bourne Hill",N13 4BD,Detached house,Old stock,Freehold,4,1050000,51.6288607,-0.1178398
9/18/2020 0:00,"38, Stonard Road",N13 4DP,Terraced house,Old stock,Freehold,4,745000,51.6248751,-0.103815
9/18/2020 0:00,"14, Bourne Hill",N13 4LH,Semi-detached house,Old stock,Freehold,3,680000,51.6257923,-0.1075378
9/18/2020 0:00,"35, Derwent Road",N13 4PY,Semi-detached house,Old stock,Freehold,5,1035000,51.6213259,-0.1149529
9/14/2020 0:00,"15, Belsize Avenue",N13 4TL,Terraced house,Old stock,Freehold,3,615000,51.6094939,-0.1112667
9/14/2020 0:00,"40, Windsor Road",N13 5PR,Semi-detached house,Old stock,Freehold,3,640000,51.6214706,-0.1031174
9/14/2020 0:00,"11, Davey Close",N13 4EX,Flat,Old stock,Leasehold,2,147044,51.6151702,-0.1129793
9/14/2020 0:00,"32, Kelvin Avenue",N13 4TG,Terraced house,Old stock,Freehold,3,670000,51.6104382,-0.111656
9/11/2020 0:00,"49, Belsize Avenue",N13 4TL,Flat,Old stock,Leasehold,2,500000,51.6094523,-0.1127495
9/4/2020 0:00,"136, Ash Grove",N13 5AP,Terraced house,Old stock,Freehold,3,517500,51.6244935,-0.0920293
9/4/2020 0:00,"19, Kingsley Road",N13 5PJ,Flat,Old stock,Leasehold,2,469000,51.6193431,-0.1018305
8/28/2020 0:00,"12, Pellipar Close",N13 4AG,Flat,Old stock,Leasehold,2,312500,51.6213932,-0.1062925
8/28/2020 0:00,"140, Norfolk Avenue",N13 6AJ,Semi-detached house,Old stock,Freehold,5,548000,51.6071646,-0.0955556
8/27/2020 0:00,"35, Palmerston Crescent",N13 4UE,Flat,Old stock,Leasehold,3,400000,51.6143061,-0.1115213
8/27/2020 0:00,"172, Millicent Grove",N13 6HS,Flat,Old stock,Leasehold,2,320000,51.614245,-0.0993921
8/26/2020 0:00,"12, Rylston Road",N13 5NQ,Terraced house,Old stock,Freehold,4,510000,51.6218445,-0.0856406
8/24/2020 0:00,"12, Lightcliffe Road",N13 5HD,Terraced house,Old stock,Leasehold,3,685000,51.6194041,-0.1026834
8/21/2020 0:00,"30, Broomfield Lane",N13 4HB,Semi-detached house,Old stock,Freehold,4,925175,51.6163627,-0.1170062
8/17/2020 0:00,"69, Riverway",N13 5JU,Terraced house,Old stock,Freehold,3,582000,51.6184779,-0.1036018
8/14/2020 0:00,"92, Caversham Avenue",N13 4LN,Terraced house,Old stock,Freehold,3,667500,51.6246119,-0.1072231
8/13/2020 0:00,"39, Millicent Grove",N13 6HF,Flat,Old stock,Leasehold,2,307500,51.6147591,-0.0977109
8/7/2020 0:00,"13, New River Crescent",N13 5RD,Terraced house,Old stock,Freehold,4,765000,51.6184065,-0.1008916
8/7/2020 0:00,"16, New Park Avenue",N13 5NB,Terraced house,Old stock,Freehold,3,542500,51.6214339,-0.0846717
8/7/2020 0:00,"10, Medesenge Way",N13 6DY,Terraced house,Old stock,Freehold,3,440000,51.6096045,-0.1007462
8/4/2020 0:00,"44a, Meadowcroft Road",N13 4EA,Flat,Old stock,Leasehold,2,421750,51.6256865,-0.1026851
7/31/2020 0:00,"54, Windsor Road",N13 5PR,Flat,Old stock,Leasehold,2,455000,51.6212754,-0.1024216
7/31/2020 0:00,"48, Ashridge Gardens",N13 4LA,Semi-detached house,Old stock,Freehold,3,640000,51.6152011,-0.1216695
7/30/2020 0:00,"21, Coniscliffe Road",N13 5NP,Terraced house,Old stock,Freehold,3,475000,51.6215535,-0.0897638
7/29/2020 0:00,"19, Upsdell Avenue",N13 6JP,Semi-detached house,Old stock,Freehold,3,585000,51.6097878,-0.1082618
7/29/2020 0:00,"36, Livingstone Road",N13 4SD,Terraced house,Old stock,Freehold,3,720000,51.6112655,-0.1194513
7/27/2020 0:00,"136, New Park Avenue",N13 5LZ,Terraced house,Old stock,Freehold,3,457000,51.6207129,-0.088978
7/27/2020 0:00,"24, Caversham Avenue",N13 4LN,Terraced house,Old stock,Leasehold,1,425000,51.6226578,-0.1082112
7/24/2020 0:00,"65, Derwent Road",N13 4QA,Terraced house,Old stock,Freehold,6,950000,51.6221185,-0.1141378
7/17/2020 0:00,"28, Cherry Blossom Close",N13 6BQ,Flat,Old stock,Leasehold,1,207000,51.6147202,-0.0962427
7/9/2020 0:00,"58, Cherry Blossom Close",N13 6BQ,Flat,Old stock,Leasehold,1,230000,51.6147202,-0.0962427
7/9/2020 0:00,"97, Berkshire Gardens",N13 6AE,Terraced house,Old stock,Freehold,3,590000,51.6088608,-0.1044784
7/8/2020 0:00,"94b, Caversham Avenue",N13 4LN,Flat,Old stock,Leasehold,1,345000,51.6246342,-0.107186
7/8/2020 0:00,"60, Crawford Gardens",N13 5TD,Flat,Old stock,Leasehold,1,410000,51.6233223,-0.0974754
6/29/2020 0:00,"30, Rayleigh Road",N13 5QR,Terraced house,Old stock,Freehold,4,585000,51.6238,-0.0865202
6/29/2020 0:00,"23, Dawlish Avenue",N13 4HP,Semi-detached house,Old stock,Freehold,3,795000,51.6165714,-0.122196
6/26/2020 0:00,"148, Fox Lane, Southgate",N13 4BA,Semi-detached house,Old stock,Freehold,5,1070000,51.6273914,-0.1157812
6/25/2020 0:00,"71, Palmerston Crescent",N13 4UD,Detached house,Old stock,Freehold,4,545000,51.6134045,-0.1127032
6/25/2020 0:00,"2, Huxley Place",N13 5SU,Terraced house,Old stock,Freehold,4,620000,51.6208288,-0.0960057
6/17/2020 0:00,"46, Fox Lane",N13 4AL,Semi-detached house,Old stock,Freehold,4,775000,51.6230304,-0.1112383
6/12/2020 0:00,"66, Ecclesbourne Gardens",N13 5HZ,Terraced house,Old stock,Freehold,4,610000,51.6141163,-0.1057054
6/11/2020 0:00,"15, Broomfield Lane",N13 4HB,Semi-detached house,Old stock,Freehold,3,625000,51.6166986,-0.1150951
6/5/2020 0:00,"18, Pellipar Close",N13 4AG,Flat,Old stock,Leasehold,2,309300,51.6213932,-0.1062925
6/1/2020 0:00,"21, Millstream Close",N13 6EF,Flat,Old stock,Leasehold,1,210000,51.6129498,-0.1025591
5/22/2020 0:00,"9a, Park Avenue, Palmers Green",N13 5PG,Flat,Old stock,Leasehold,2,412564,51.6205905,-0.1050597
5/21/2020 0:00,"1, Burford Gardens",N13 4LR,Terraced house,Old stock,Freehold,5,942000,51.6228627,-0.1101297
5/15/2020 0:00,"20, Medesenge Way",N13 6DY,Terraced house,Old stock,Freehold,2,373000,51.6096045,-0.1007462
4/30/2020 0:00,"26, Crawford Gardens",N13 5TD,Terraced house,Old stock,Freehold,4,650000,51.6230887,-0.098802
4/28/2020 0:00,"22, Pilgrims Close",N13 4HX,Flat,Old stock,Leasehold,2,325000,51.6173233,-0.1121383
4/24/2020 0:00,"27, Wauthier Close",N13 5HU,Terraced house,Old stock,Freehold,2,345000,51.6156219,-0.100711
4/9/2020 0:00,"25, Belsize Avenue",N13 4TL,Terraced house,Old stock,Freehold,3,500400,51.6094931,-0.1116772
4/9/2020 0:00,"54a, Windsor Road",N13 5PR,Flat,Old stock,Leasehold,2,470000,51.6212754,-0.1024216
4/8/2020 0:00,"50, Wentworth Gardens",N13 5SN,Flat,Old stock,Leasehold,2,380000,51.6202938,-0.0995248
4/8/2020 0:00,"17, Munster Gardens",N13 5DS,Terraced house,Old stock,Freehold,3,480000,51.6169113,-0.0957733
4/6/2020 0:00,"39, Madeira Road",N13 5SR,Terraced house,Old stock,Freehold,5,620000,51.6201515,-0.0984882
3/31/2020 0:00,"22, Moffat Road",N13 4SA,Terraced house,Old stock,Freehold,3,470000,51.6112615,-0.1187808
3/31/2020 0:00,"27, Wentworth Gardens",N13 5SW,Terraced house,Old stock,Freehold,3,615000,51.6206513,-0.0991506
3/27/2020 0:00,"20, Rylston Road",N13 5NQ,Terraced house,Old stock,Freehold,3,450000,51.6216181,-0.0858011
3/26/2020 0:00,"16, Kenmare Gardens",N13 5DN,Terraced house,Old stock,Freehold,3,495000,51.6171424,-0.0931637
3/26/2020 0:00,"48, Myrtle Road, Palmers Green",N13 5QX,Terraced house,Old stock,Freehold,3,530000,51.6222742,-0.088591
3/23/2020 0:00,"120, New River Crescent",N13 5RJ,Terraced house,Old stock,Leasehold,2,449950,51.621154,-0.1005927
3/20/2020 0:00,"175, Fox Lane",N13 4AU,Terraced house,Old stock,Leasehold,2,413000,51.6266882,-0.1161718
3/16/2020 0:00,"5, Norfolk Close",N13 6AN,Terraced house,Old stock,Freehold,3,450000,51.609079,-0.09606
3/13/2020 0:00,"29, St Georges Road",N13 4AT,Terraced house,Old stock,Freehold,3,725000,51.62584,-0.113273
3/13/2020 0:00,"85, Lakeside Road",N13 4PS,Semi-detached house,Old stock,Freehold,5,975000,51.6223974,-0.1120888
3/6/2020 0:00,"83, Medesenge Way",N13 6DZ,Flat,Old stock,Leasehold,1,230000,51.609678,-0.099761
3/6/2020 0:00,"1, Caversham Avenue",N13 4LL,Flat,Old stock,Leasehold,2,340000,51.623583,-0.108238
3/4/2020 0:00,"7, Elvendon Road",N13 4SJ,Terraced house,Old stock,Freehold,3,800000,51.6103924,-0.1185603
3/2/2020 0:00,"Flat B, 38, Belsize Avenue",N13 4TJ,Flat,Old stock,Leasehold,2,395000,51.6097285,-0.1121773
2/28/2020 0:00,"29, Hedge Lane",N13 5SJ,Terraced house,Old stock,Freehold,4,690000,51.623076,-0.1016483
2/28/2020 0:00,"277, Princes Avenue",N13 6HJ,Terraced house,Old stock,Freehold,3,495000,51.613591,-0.096492
2/21/2020 0:00,"68, Ulster Gardens",N13 5DW,Terraced house,Old stock,Freehold,3,580000,51.6183,-0.092409
2/21/2020 0:00,"16, Wauthier Close",N13 5HU,Terraced house,Old stock,Freehold,2,421000,51.615588,-0.100395
2/21/2020 0:00,"81, Hedge Lane",N13 5SZ,Terraced house,Old stock,Leasehold,3,482000,51.622081,-0.098232
2/21/2020 0:00,"Flat 14, Hazelwood House, New River Crescent",N13 5RE,Flat,Old stock,Leasehold,2,310000,51.618055,-0.10061
2/21/2020 0:00,"11, Madeira Road",N13 5SR,Terraced house,Old stock,Freehold,3,635000,51.620583,-0.098468
2/19/2020 0:00,"132, The Larches",N13 5QE,Terraced house,Old stock,Freehold,3,530000,51.623965,-0.090727
2/14/2020 0:00,"62, Melbourne Avenue",N13 4SX,Terraced house,Old stock,Freehold,3,650000,51.611122,-0.111775
2/14/2020 0:00,"34, Hawthorn Avenue",N13 4JT,Terraced house,Old stock,Freehold,3,714000,51.615037,-0.117564
2/13/2020 0:00,"1, Kenmare Gardens",N13 5DR,Terraced house,Old stock,Freehold,3,460000,51.617325,-0.093866
2/13/2020 0:00,"105, Munster Gardens",N13 5DU,Semi-detached house,Old stock,Freehold,4,535000,51.61885,-0.094741
2/11/2020 0:00,"30a, Hereward Gardens",N13 6EU,Flat,Old stock,Leasehold,1,260000,51.61238,-0.103346
2/11/2020 0:00,"96c, Palmerston Crescent",N13 4NH,Flat,Old stock,Leasehold,1,210000,51.613324,-0.113374
2/7/2020 0:00,"56, Devonshire Road, Palmers Green",N13 4QX,Flat,Old stock,Leasehold,2,257471,51.619217,-0.108492
2/7/2020 0:00,"172, New River Crescent",N13 5RJ,Terraced house,Old stock,Freehold,3,603000,51.621293,-0.100634
2/5/2020 0:00,"6, Belsize Avenue",N13 4TJ,Terraced house,Old stock,Freehold,3,577000,51.609723,-0.112021
2/5/2020 0:00,"37, Hazelwood Lane",N13 5EZ,Terraced house,Old stock,Freehold,3,555000,51.61916,-0.104421
1/31/2020 0:00,"116, Powys Lane",N13 4HR,Semi-detached house,Old stock,Freehold,5,1030000,51.616943,-0.119796
1/31/2020 0:00,"26, Wauthier Close",N13 5HU,Terraced house,Old stock,Freehold,2,380000,51.615588,-0.100395
1/31/2020 0:00,"16, Oaktree Avenue",N13 5RW,Terraced house,Old stock,Freehold,3,530000,51.623408,-0.101297
1/29/2020 0:00,"26, Dawlish Avenue",N13 4HP,Terraced house,Old stock,Freehold,3,590000,51.616418,-0.12184
1/29/2020 0:00,"14a, Windsor Road",N13 5PR,Flat,Old stock,Leasehold,2,427000,51.621537,-0.103513
1/29/2020 0:00,"67, Palmerston Crescent",N13 4UD,Flat,Old stock,Leasehold,2,378000,51.6135315,-0.1125419
1/28/2020 0:00,"9, River Avenue",N13 5RX,Terraced house,Old stock,Freehold,3,730000,51.625246,-0.098778
1/27/2020 0:00,"30, Kelvin Avenue",N13 4TG,Terraced house,Old stock,Freehold,3,575000,51.6104404,-0.1115553
1/24/2020 0:00,"15, Moffat Road",N13 4SA,Terraced house,Old stock,Freehold,3,525000,51.611444,-0.118391
1/22/2020 0:00,"Flat 23, Hazelwood House, New River Crescent",N13 5HG,Flat,Old stock,Leasehold,2,380000,51.617563,-0.100732
1/17/2020 0:00,"20, Lynbridge Gardens",N13 5BH,Semi-detached house,Old stock,Freehold,4,615000,51.617703,-0.099411
1/16/2020 0:00,"95, Princes Avenue",N13 6HA,Terraced house,Old stock,Freehold,3,510000,51.611894,-0.107179
1/16/2020 0:00,"57, Chimes Avenue",N13 5HT,Terraced house,Old stock,Freehold,4,562000,51.616272,-0.101537
1/16/2020 0:00,"22, Burford Gardens",N13 4LP,Flat,Old stock,Leasehold,2,462000,51.6231513,-0.1094854
1/10/2020 0:00,"82a, Caversham Avenue",N13 4LN,Flat,Old stock,Leasehold,2,427000,51.623675,-0.107631
1/10/2020 0:00,"30, Crawford Gardens",N13 5TD,Terraced house,Old stock,Freehold,4,630000,51.623187,-0.098792
1/9/2020 0:00,"Flat 9, Hazelwood House, New River Crescent",N13 5RE,Flat,Old stock,Leasehold,2,330000,51.618055,-0.10061
1/3/2020 0:00,"23, Madeira Road",N13 5SR,Terraced house,Old stock,Freehold,3,660000,51.620583,-0.098468
12/20/2019 0:00,"Flat 13, Old Park House, Old Park Road",N13 4RD,Flat,Old stock,Leasehold,2,390000,51.6189544,-0.1110362
12/20/2019 0:00,"136, Norfolk Avenue",N13 6AJ,Terraced house,Old stock,Freehold,4,460000,51.6072981,-0.0957058
12/17/2019 0:00,"327b, North Circular Road",N13 5JH,Flat,Old stock,Leasehold,1,195000,51.6134786,-0.1053498
12/17/2019 0:00,"17b, Palmerston Crescent",N13 4UE,Flat,Old stock,Leasehold,1,335000,51.6144936,-0.1105528
12/13/2019 0:00,"18, Rylston Road",N13 5NQ,Terraced house,Old stock,Freehold,3,640000,51.6216387,-0.0857782
12/13/2019 0:00,"14, Lightcliffe Road",N13 5HD,Terraced house,Old stock,Leasehold,2,347000,51.6194518,-0.1026564
12/12/2019 0:00,"23, Harlow Road",N13 5QT,Terraced house,Old stock,Freehold,3,407000,51.6235757,-0.0856154
12/6/2019 0:00,"54, Madeira Road",N13 5SS,Semi-detached house,Old stock,Freehold,3,610000,51.6199015,-0.0981685
12/6/2019 0:00,"93, Princes Avenue",N13 6HA,Terraced house,Old stock,Freehold,4,260000,51.611968,-0.1051097
12/6/2019 0:00,"63, Devonshire Road, Palmers Green",N13 4QU,Terraced house,Old stock,Freehold,4,775000,51.6196867,-0.1085844
12/4/2019 0:00,"102, Cherry Blossom Close",N13 6BT,Flat,Old stock,Leasehold,1,235000,51.6151216,-0.0966014
12/2/2019 0:00,"65, Connaught Gardens",N13 5BP,Terraced house,Old stock,Freehold,3,505000,51.6167068,-0.0900942
12/2/2019 0:00,"50a, Belsize Avenue",N13 4TJ,Flat,Old stock,Leasehold,2,445200,51.6097352,-0.1127426
12/2/2019 0:00,"207, Fox Lane",N13 4BB,Semi-detached house,Old stock,Freehold,4,840000,51.6280466,-0.116696
11/29/2019 0:00,"36, Kelvin Avenue",N13 4TG,Terraced house,Old stock,Freehold,3,600000,51.6104479,-0.1119403
11/29/2019 0:00,"46, The Fairway, Palmers Green",N13 5NF,Terraced house,Old stock,Freehold,3,470000,51.62264,-0.0853191
11/29/2019 0:00,"60a, Devonshire Road, Palmers Green",N13 4QX,Flat,Old stock,Leasehold,1,375000,51.6195844,-0.108077
11/29/2019 0:00,"25, Eaton Park Road, Palmers Green",N13 4ED,Terraced house,Old stock,Freehold,3,620000,51.6261717,-0.1012792
11/29/2019 0:00,"329, North Circular Road",N13 5JH,Terraced house,Old stock,Freehold,3,475000,51.6134482,-0.105484
11/28/2019 0:00,"149, Hedge Lane",N13 5BZ,Terraced house,Old stock,Freehold,3,496000,51.6204915,-0.0933893
11/28/2019 0:00,"4, New River Crescent",N13 5RF,Terraced house,Old stock,Freehold,3,522000,51.6184293,-0.1003409
11/25/2019 0:00,"160, Hedge Lane",N13 5BX,Terraced house,Old stock,Freehold,3,540000,51.6201788,-0.0933444
11/22/2019 0:00,"37, Bourne Hill",N13 4LJ,Terraced house,Old stock,Freehold,4,738000,51.6257842,-0.1090808
11/22/2019 0:00,"84, Hoppers Road",N21 3LH,Semi-detached house,Old stock,Freehold,2,570000,51.6257218,-0.1046265
11/18/2019 0:00,"52, Kelvin Avenue",N13 4TG,Semi-detached house,Old stock,Freehold,4,692000,51.6104377,-0.1125692
11/15/2019 0:00,"25, St Georges Road",N13 4AT,Semi-detached house,Old stock,Freehold,3,710000,51.625859,-0.1131702
11/13/2019 0:00,"54, The Grove",N13 5JR,Terraced house,Old stock,Freehold,3,628500,51.6188254,-0.1059537
11/11/2019 0:00,"20, Devonshire Road, Palmers Green",N13 4QX,Terraced house,Old stock,Freehold,4,780000,51.6187445,-0.1089098
11/8/2019 0:00,"49, Dawlish Avenue",N13 4HP,Semi-detached house,Old stock,Freehold,3,675000,51.6162184,-0.1212449
11/6/2019 0:00,"31, Spencer Avenue",N13 4TS,Terraced house,Old stock,Freehold,3,742350,51.6087533,-0.1126084
11/1/2019 0:00,"23, Avondale Road",N13 4DX,Terraced house,Old stock,Freehold,3,685000,51.625649,-0.1039135
10/31/2019 0:00,"124, Hoppers Road",N21 3LH,Flat,Old stock,Leasehold,1,495000,51.6268982,-0.1040904
10/31/2019 0:00,"11, Bourne Hill",N13 4LJ,Semi-detached house,Old stock,Freehold,3,620000,51.6254803,-0.1075142
10/30/2019 0:00,"50, Lakeside Road",N13 4PR,Semi-detached house,Old stock,Freehold,4,925000,51.6212647,-0.112656
10/30/2019 0:00,"25, The Crest",N13 5JT,Terraced house,Old stock,Freehold,4,780000,51.6185799,-0.104524
10/25/2019 0:00,"73, Bourne Hill",N13 4LU,Terraced house,Old stock,Freehold,4,755000,51.6268629,-0.1127896
10/23/2019 0:00,"285c, Princes Avenue",N13 6HJ,Terraced house,Old stock,Freehold,4,482500,51.6136623,-0.0962214
10/23/2019 0:00,"13, Millstream Close",N13 6EF,Flat,Old stock,Leasehold,1,202000,51.612949,-0.1023939
10/23/2019 0:00,"170, Hedge Lane",N13 5DA,Terraced house,Old stock,Freehold,3,530000,51.6200547,-0.0924832
10/22/2019 0:00,"Flat C, 3, Hardwicke Road",N13 4SL,Flat,Old stock,Leasehold,1,315000,51.6124614,-0.1205391
10/18/2019 0:00,"82, Broomfield Avenue",N13 4JP,Terraced house,Old stock,Freehold,3,700000,51.6158352,-0.114815
10/11/2019 0:00,"14b, Cranley Gardens",N13 4LS,Flat,Old stock,Leasehold,2,422500,51.6239443,-0.1105236
10/11/2019 0:00,"21, Oaktree Avenue",N13 5RW,Terraced house,Old stock,Freehold,3,632000,51.6235705,-0.100636
10/7/2019 0:00,"114, Dorchester Avenue",N13 5DX,Terraced house,Old stock,Freehold,3,495000,51.6194944,-0.0930749
10/2/2019 0:00,"33, Grovelands Road",N13 4RJ,Semi-detached house,Old stock,Freehold,5,975000,51.620539,-0.1121018
9/27/2019 0:00,"51, Avondale Road",N13 4DX,Terraced house,Old stock,Freehold,4,750000,51.6263548,-0.103585
9/26/2019 0:00,"144, Fox Lane, Southgate",N13 4BA,Semi-detached house,Old stock,Freehold,5,1200000,51.6270529,-0.1158181
9/16/2019 0:00,"58, Ulster Gardens",N13 5DW,Terraced house,Old stock,Freehold,3,510000,51.6183226,-0.0925098
9/16/2019 0:00,"8, Fox Lane",N13 4AH,Terraced house,Old stock,Freehold,4,825000,51.6217858,-0.1086606
9/13/2019 0:00,"Flat E, 177, Fox Lane",N13 4BB,Flat,Old stock,Leasehold,2,368500,51.6273718,-0.1160492
8/30/2019 0:00,"95, The Fairway, Palmers Green",N13 5QN,Semi-detached house,Old stock,Freehold,4,640000,51.6230237,-0.088379
8/29/2019 0:00,"42, Avondale Road",N13 4DU,Terraced house,Old stock,Freehold,4,700000,51.6262944,-0.1031565
8/28/2019 0:00,"33, Norfolk Avenue",N13 6AP,Semi-detached house,Old stock,Freehold,3,649950,51.6090935,-0.1002152
8/27/2019 0:00,"56, Cherry Blossom Close",N13 6BQ,Flat,Old stock,Leasehold,1,245000,51.6147202,-0.0962427
8/23/2019 0:00,"50, Grenoble Gardens",N13 6JG,Terraced house,Old stock,Freehold,3,609000,51.6102907,-0.1066586
8/23/2019 0:00,"28, Amberley Road",N13 4BJ,Terraced house,Old stock,Freehold,4,1075000,51.6265764,-0.1139981
8/21/2019 0:00,"5, Ashridge Gardens",N13 4JY,Terraced house,Old stock,Freehold,3,640000,51.6162271,-0.1237947
8/19/2019 0:00,"38, Livingstone Road",N13 4SD,Terraced house,Old stock,Freehold,2,570250,51.6111832,-0.1194971
8/16/2019 0:00,"62, Lightcliffe Road",N13 5PW,Flat,Old stock,Leasehold,1,362500,51.6213381,-0.1016765
8/16/2019 0:00,"58, The Fairway, Palmers Green",N13 5NF,Terraced house,Old stock,Freehold,3,580000,51.6227549,-0.0857376
8/16/2019 0:00,"65, Burford Gardens",N13 4LR,Terraced house,Old stock,Freehold,3,650000,51.6246595,-0.1090811
8/12/2019 0:00,"49, Grenoble Gardens",N13 6JE,Terraced house,Old stock,Freehold,3,665000,51.6105615,-0.1050718
8/12/2019 0:00,"34, Millicent Grove",N13 6HQ,Flat,Old stock,Leasehold,2,308000,51.6149187,-0.0971336
8/12/2019 0:00,"71, Old Park Road",N13 4RG,Flat,Old stock,Leasehold,2,467500,51.6211629,-0.1097166
8/9/2019 0:00,"274a, Green Lanes",N13 5TU,Flat,Old stock,Leasehold,1,236500,51.6180333,-0.1082654
8/8/2019 0:00,"226, Hedge Lane",N13 5DA,Terraced house,Old stock,Freehold,4,565000,51.6189997,-0.0903402
8/8/2019 0:00,"21, Crothall Close",N13 4BN,Terraced house,Old stock,Freehold,4,582500,51.6257632,-0.1118289
8/6/2019 0:00,"86, Ulster Gardens",N13 5DW,Terraced house,Old stock,Freehold,3,565000,51.6187366,-0.0935148
8/2/2019 0:00,"8, Kelvin Avenue",N13 4TG,Terraced house,Old stock,Freehold,3,555710,51.6104183,-0.1106844
8/2/2019 0:00,"72, Ecclesbourne Gardens",N13 5HZ,Terraced house,Old stock,Freehold,4,610000,51.6141277,-0.105505
8/1/2019 0:00,"29, New River Crescent",N13 5RD,Semi-detached house,Old stock,Freehold,4,765000,51.6188443,-0.1005482
7/31/2019 0:00,"11, Berkshire Gardens",N13 6AA,Semi-detached house,Old stock,Freehold,3,632000,51.6088695,-0.109023
7/29/2019 0:00,"171, Fox Lane",N13 4AU,Terraced house,Old stock,Freehold,3,610000,51.6265202,-0.1160199
7/26/2019 0:00,"51, Hedge Lane",N13 5SJ,Terraced house,Old stock,Freehold,3,495000,51.6228198,-0.1006678
7/24/2019 0:00,"50, Palmerston Crescent",N13 4UA,Flat,Old stock,Leasehold,1,382500,51.6142543,-0.1121582
7/24/2019 0:00,"30, Lytton Avenue",N13 4EH,Terraced house,Old stock,Freehold,2,470000,51.6272303,-0.10194
7/23/2019 0:00,"19, Hereward Gardens",N13 6EX,Semi-detached house,Old stock,Freehold,3,555000,51.6127192,-0.1043407
7/19/2019 0:00,"12, Norfolk Avenue",N13 6AG,Terraced house,Old stock,Freehold,4,720000,51.6088048,-0.1012277
7/16/2019 0:00,"63, Broomfield Avenue",N13 4JR,Terraced house,Old stock,Freehold,4,720000,51.6162268,-0.1138486
7/12/2019 0:00,"17, New River Crescent",N13 5RD,Semi-detached house,Old stock,Freehold,4,750000,51.6184803,-0.1007904
7/12/2019 0:00,"59, Dawlish Avenue",N13 4HP,Terraced house,Old stock,Freehold,5,745000,51.6161479,-0.1207977
7/5/2019 0:00,"24, Livingstone Road",N13 4SD,Terraced house,Old stock,Freehold,2,570000,51.6115041,-0.119475
6/28/2019 0:00,"45, Ashridge Gardens",N13 4JY,Semi-detached house,Old stock,Freehold,4,734000,51.6156533,-0.121902
6/27/2019 0:00,"13, Ulster Gardens",N13 5DP,Terraced house,Old stock,Freehold,3,579000,51.6177468,-0.092447
6/27/2019 0:00,"78, Riverway",N13 5JX,Terraced house,Old stock,Freehold,3,510000,51.6170273,-0.1044375
6/27/2019 0:00,"194, Hedge Lane",N13 5DA,Terraced house,Old stock,Freehold,4,530000,51.6196229,-0.0917666
6/24/2019 0:00,"98, Bourne Hill",N13 4LY,Detached house,Old stock,Freehold,5,958000,51.6275899,-0.1135607
6/20/2019 0:00,"187, Hedge Lane",N13 5BZ,Terraced house,Old stock,Freehold,3,468000,51.6197589,-0.0916733
6/17/2019 0:00,"4, Rayleigh Close",N13 5QS,Semi-detached house,Old stock,Freehold,3,460000,51.6233696,-0.0867619
6/14/2019 0:00,"24, Ecclesbourne Close",N13 5JA,Flat,Old stock,Leasehold,1,265000,51.6136757,-0.1072275
6/14/2019 0:00,"24, Harlow Road",N13 5QT,Terraced house,Old stock,Freehold,3,420000,51.6233425,-0.0854417
6/12/2019 0:00,"134, Tottenhall Road",N13 6DL,Terraced house,Old stock,Freehold,2,375000,51.6111066,-0.1003527
6/7/2019 0:00,"13, Berkshire Gardens",N13 6AA,Terraced house,Old stock,Leasehold,3,700000,51.608912,-0.1089094
6/7/2019 0:00,"37, Kingsley Road",N13 5PJ,Terraced house,Old stock,Freehold,3,721000,51.6198368,-0.1017862
6/7/2019 0:00,"3, Elvendon Road",N13 4SJ,Terraced house,Old stock,Freehold,4,827500,51.6103618,-0.1184104
6/5/2019 0:00,"52b, Grenoble Gardens",N13 6JG,Flat,Old stock,Leasehold,3,375000,51.6103336,-0.106542
6/4/2019 0:00,"16, Cherry Blossom Close",N13 6BQ,Flat,Old stock,Leasehold,2,280000,51.6147202,-0.0962427
6/4/2019 0:00,"8a, New River Crescent",N13 5RF,Flat,Old stock,Leasehold,2,482500,51.6185219,-0.1002145
6/3/2019 0:00,"21, Norfolk Close",N13 6AN,Terraced house,Old stock,Freehold,3,430000,51.609098,-0.0958778
5/31/2019 0:00,"151, New Park Avenue",N13 5NA,Terraced house,Old stock,Freehold,3,500000,51.6204818,-0.089087
5/30/2019 0:00,"14, Avondale Road",N13 4DU,Flat,Old stock,Leasehold,2,400000,51.6254498,-0.1035816
5/29/2019 0:00,"32, Millicent Grove",N13 6HQ,Flat,Old stock,Leasehold,2,325000,51.6148649,-0.0973208
5/16/2019 0:00,"66, Pellipar Close",N13 4AG,Flat,Old stock,Leasehold,2,320000,51.6213932,-0.1062925
5/16/2019 0:00,"92, Ulster Gardens",N13 5DW,Terraced house,Old stock,Freehold,3,505000,51.618846,-0.0937985
5/15/2019 0:00,"33, Avondale Road",N13 4DX,Semi-detached house,Old stock,Freehold,3,675000,51.6260368,-0.1036961
5/13/2019 0:00,"62, River Avenue",N13 5RN,Terraced house,Old stock,Freehold,4,755000,51.6234519,-0.1000265
5/10/2019 0:00,"15, Hamilton Crescent",N13 5LN,Terraced house,Old stock,Freehold,3,612500,51.6168771,-0.1032713
5/10/2019 0:00,"81, Derwent Road",N13 4QA,Flat,Old stock,Leasehold,2,520000,51.6226064,-0.1136361
5/3/2019 0:00,"52, Westminster Drive",N13 4NU,Terraced house,Old stock,Freehold,3,435000,51.613619,-0.1174591
5/3/2019 0:00,"16, Upsdell Avenue",N13 6JN,Semi-detached house,Old stock,Freehold,3,635000,51.6094699,-0.1085697
5/3/2019 0:00,"106, Millicent Grove",N13 6HS,Flat,Old stock,Leasehold,2,328000,51.6144867,-0.0986557
5/3/2019 0:00,"11, Osborne Road",N13 5PT,Flat,Old stock,Leasehold,2,340000,51.6225394,-0.1038128
5/3/2019 0:00,"108, Hoppers Road",N21 3LH,Terraced house,Old stock,Freehold,3,690000,51.6264619,-0.1042278
5/1/2019 0:00,"21a, Hardwicke Road",N13 4SL,Flat,Old stock,Leasehold,2,416500,51.6116413,-0.1205036
4/30/2019 0:00,"8a, Broomfield Avenue",N13 4JN,Flat,Old stock,Leasehold,4,500000,51.6180866,-0.1125079
4/30/2019 0:00,"17, Grovelands Road",N13 4RJ,Semi-detached house,Old stock,Freehold,5,1170000,51.6201042,-0.1125183
4/26/2019 0:00,"7, Millstream Close",N13 6EF,Flat,Old stock,Leasehold,1,180000,51.6129877,-0.1022702
4/26/2019 0:00,"89, Westminster Drive",N13 4NT,Terraced house,Old stock,Freehold,5,522000,51.6137688,-0.1163247
4/24/2019 0:00,"51, River Avenue",N13 5RX,Flat,Old stock,Leasehold,2,380000,51.6248038,-0.0989131
4/23/2019 0:00,"41, The Larches",N13 5AU,Terraced house,Old stock,Freehold,3,482000,51.6226617,-0.0918149
4/18/2019 0:00,"45, Farndale Avenue",N13 5AJ,Semi-detached house,Old stock,Freehold,3,460000,51.623627,-0.0945405
4/18/2019 0:00,"81, Upsdell Avenue",N13 6JJ,Terraced house,Old stock,Freehold,4,700000,51.6097885,-0.1049633
4/17/2019 0:00,"65a, Green Lanes",N13 4TD,Flat,Old stock,Leasehold,2,257000,51.6101639,-0.1099747
4/17/2019 0:00,"115, Farndale Avenue",N13 5AJ,Semi-detached house,Old stock,Freehold,3,547000,51.6249724,-0.0937273
4/17/2019 0:00,"93, Dorchester Avenue",N13 5DY,Terraced house,Old stock,Freehold,4,567500,51.6191661,-0.0929511
4/12/2019 0:00,"64, Park Avenue, Palmers Green",N13 5PF,Terraced house,Old stock,Freehold,5,755000,51.620525,-0.1026069
4/12/2019 0:00,"13, Ecclesbourne Gardens",N13 5JD,Semi-detached house,Old stock,Freehold,4,645000,51.6143916,-0.1083449
4/10/2019 0:00,"62a, Kelvin Avenue",N13 4TG,Flat,Old stock,Leasehold,2,315000,51.610439,-0.1130761
4/9/2019 0:00,"37, New Park Avenue",N13 5ND,Terraced house,Old stock,Freehold,3,490000,51.6208678,-0.0846695
4/9/2019 0:00,"49, Kenmare Gardens",N13 5DR,Terraced house,Old stock,Freehold,4,592500,51.6172411,-0.0948529
4/5/2019 0:00,"37, St Georges Road",N13 4AT,Terraced house,Old stock,Freehold,4,825000,51.6261734,-0.1130671
4/5/2019 0:00,"27, The Fairway, Palmers Green",N13 5NE,Terraced house,Old stock,Freehold,3,610000,51.6222039,-0.0848757
4/4/2019 0:00,"79, The Larches",N13 5QD,Terraced house,Old stock,Freehold,3,502500,51.6236701,-0.0912839
3/29/2019 0:00,"10, Avondale Road",N13 4DU,Flat,Old stock,Leasehold,2,365500,51.6253135,-0.1040948
3/29/2019 0:00,"103, Berkshire Gardens",N13 6AE,Terraced house,Old stock,Freehold,3,640000,51.6089255,-0.1042689
3/29/2019 0:00,"39, Rayleigh Road",N13 5QW,Terraced house,Old stock,Freehold,3,385000,51.6238958,-0.0873205
3/29/2019 0:00,"45, Medesenge Way",N13 6DZ,Flat,Old stock,Leasehold,1,233000,51.6096801,-0.0998601
3/22/2019 0:00,"43, Bourne Hill",N13 4LJ,Terraced house,Old stock,Freehold,3,785000,51.6259107,-0.1093511
3/22/2019 0:00,"67, Ulster Gardens",N13 5DP,Terraced house,Old stock,Freehold,3,470000,51.6186298,-0.0941549
3/18/2019 0:00,"69, Grenoble Gardens",N13 6JD,Terraced house,Old stock,Leasehold,3,557000,51.6106532,-0.1037225
3/8/2019 0:00,"81, Bourne Hill",N13 4LU,Terraced house,Old stock,Freehold,4,920000,51.6269882,-0.1130635
3/7/2019 0:00,"105, Rayleigh Road",N13 5QW,Terraced house,Old stock,Freehold,3,530000,51.6240664,-0.0846336
2/28/2019 0:00,"86a, Hazelwood Lane",N13 5HB,Terraced house,Old stock,Leasehold,2,347000,51.6186325,-0.1026606
2/26/2019 0:00,"4, Norfolk Avenue",N13 6AG,Terraced house,Old stock,Freehold,4,640000,51.6088044,-0.1015963
2/22/2019 0:00,"13, River Avenue",N13 5RX,Terraced house,Old stock,Leasehold,1,346000,51.6258449,-0.0985813
2/18/2019 0:00,"69a, Grovelands Road",N13 4RJ,Flat,Old stock,Leasehold,2,427500,51.6216293,-0.1110694
2/15/2019 0:00,"43, Dawlish Avenue",N13 4HP,Semi-detached house,Old stock,Freehold,3,682500,51.6163295,-0.1215965
2/14/2019 0:00,"44, Hamilton Crescent",N13 5LW,Terraced house,Old stock,Freehold,3,575000,51.6168589,-0.1022815
2/8/2019 0:00,"9, Kingsley Road",N13 5PJ,Semi-detached house,Old stock,Freehold,3,612000,51.61904,-0.101837
2/8/2019 0:00,"16, Wentworth Gardens",N13 5SN,Terraced house,Old stock,Freehold,3,600000,51.6213448,-0.0994786
2/8/2019 0:00,"50a, Kingsley Road",N13 5PL,Flat,Old stock,Leasehold,1,366000,51.6196788,-0.1013701
2/7/2019 0:00,"55, Melbourne Avenue",N13 4SY,Terraced house,Old stock,Freehold,3,590000,51.6109117,-0.1125616
2/7/2019 0:00,"5, Ulster Gardens",N13 5DP,Terraced house,Old stock,Freehold,3,440000,51.6170442,-0.0923951
2/1/2019 0:00,"20, The Rise",N13 5LE,Flat,Old stock,Leasehold,1,430000,51.6170506,-0.105508
2/1/2019 0:00,"157, Fox Lane",N13 4AU,Flat,Old stock,Leasehold,2,409500,51.6260377,-0.1156305
2/1/2019 0:00,"59, New River Crescent",N13 5RD,Terraced house,Old stock,Freehold,3,638000,51.6197142,-0.100864
1/31/2019 0:00,"72, Millicent Grove",N13 6HQ,Flat,Old stock,Leasehold,2,310000,51.6147809,-0.0981505
1/30/2019 0:00,"63a, Tottenhall Road",N13 6HY,Flat,Old stock,Leasehold,3,290000,51.6113444,-0.1061837
1/30/2019 0:00,"60, St Pauls Rise",N13 6LD,Flat,Old stock,Leasehold,1,230000,51.6100987,-0.0985013
1/29/2019 0:00,"145, Princes Avenue",N13 6HE,Terraced house,Old stock,Freehold,4,540000,51.6119291,-0.1025292
1/25/2019 0:00,"24, The Grove",N13 5LG,Terraced house,Old stock,Freehold,3,630000,51.6164234,-0.1059926
1/25/2019 0:00,"150, Hazelwood Lane",N13 5HJ,Terraced house,Old stock,Freehold,3,535000,51.6170474,-0.0992748
1/23/2019 0:00,"49, The Grove",N13 5LD,Semi-detached house,Old stock,Freehold,4,820000,51.6170535,-0.1064701
1/22/2019 0:00,"32, Hamilton Crescent",N13 5LW,Terraced house,Old stock,Freehold,3,595000,51.6167111,-0.1027592
1/21/2019 0:00,"1, St Cuthberts Road",N13 6AR,Flat,Old stock,Freehold,1,285000,51.6103704,-0.1053841
1/18/2019 0:00,"34, Millstream Close",N13 6EF,Flat,Old stock,Leasehold,1,175000,51.6129969,-0.1025148
1/18/2019 0:00,"22, Ash Grove",N13 5AA,Terraced house,Old stock,Freehold,4,622000,51.6211597,-0.0935484
1/17/2019 0:00,"82, Ulster Gardens",N13 5DW,Terraced house,Old stock,Freehold,3,450000,51.618701,-0.0933862
1/15/2019 0:00,"144a, New River Crescent",N13 5RJ,Flat,Old stock,Leasehold,1,310000,51.6217252,-0.1005672
1/9/2019 0:00,"103, Norfolk Avenue",N13 6AL,Terraced house,Old stock,Freehold,3,445000,51.6082229,-0.0962848
1/7/2019 0:00,"28, Grovelands Road",N13 4RH,Flat,Old stock,Leasehold,1,433250,51.6201331,-0.1118901
1/7/2019 0:00,"221, Hedge Lane",N13 5DE,Terraced house,Old stock,Freehold,3,485000,51.6190533,-0.0898837
1/4/2019 0:00,"370a, Green Lanes",N13 5PE,Terraced house,Old stock,Leasehold,2,345000,51.6207892,-0.105871
1/3/2019 0:00,"62, Old Park Road",N13 4RE,Semi-detached house,Old stock,Freehold,5,1093000,51.6210747,-0.109294
1/3/2019 0:00,"24, Melville Gardens",N13 6ET,Terraced house,Old stock,Freehold,3,555000,51.6128659,-0.1018599
1/3/2019 0:00,"6, Caversham Avenue",N13 4LN,Terraced house,Old stock,Freehold,4,840000,51.6221737,-0.1085187
12/20/2018 0:00,"118a, Hazelwood Lane",N13 5HF,Flat,Old stock,Leasehold,2,365000,51.6179052,-0.1014939
12/19/2018 0:00,"Flat 19, Hertford Court, Green Lanes",N13 4DD,Flat,Old stock,Leasehold,2,395000,51.6214176,-0.107245
12/18/2018 0:00,"16, Davey Close",N13 4EX,Flat,Old stock,Leasehold,2,217750,51.6151427,-0.1128092
12/18/2018 0:00,"29, Ulster Gardens",N13 5DP,Terraced house,Old stock,Freehold,3,520000,51.6181447,-0.0927536
12/14/2018 0:00,"126, Tottenhall Road",N13 6DG,Terraced house,Old stock,Freehold,2,360700,51.6110585,-0.1010455
12/13/2018 0:00,"43, St Georges Road",N13 4AT,Terraced house,Old stock,Freehold,3,735000,51.6263424,-0.112926
12/13/2018 0:00,"12, Hazel Close",N13 5NJ,Terraced house,Old stock,Freehold,3,415000,51.6216876,-0.0867411
12/13/2018 0:00,"27, Moffat Road",N13 4SA,Terraced house,Old stock,Freehold,3,630000,51.6113488,-0.1183685
12/12/2018 0:00,"157, Cherry Blossom Close",N13 6BZ,Flat,Old stock,Leasehold,1,240000,51.6152743,-0.0960317
12/11/2018 0:00,"118, Millicent Grove",N13 6HS,Flat,Old stock,Leasehold,2,317000,51.6144747,-0.0987924
12/7/2018 0:00,"104, Grenoble Gardens",N13 6JH,Terraced house,Old stock,Freehold,3,553000,51.6103755,-0.1038251
11/29/2018 0:00,"33, Millicent Grove",N13 6HF,Flat,Old stock,Leasehold,2,130000,51.6147817,-0.0975872
11/26/2018 0:00,"80, Pellipar Close",N13 4AG,Flat,Old stock,Leasehold,2,310000,51.6213932,-0.1062925
11/26/2018 0:00,"30, Huxley Place",N13 5SU,Semi-detached house,Old stock,Freehold,3,550000,51.620178,-0.0963463
11/22/2018 0:00,"7, Pymmes Close",N13 4NJ,Flat,Old stock,Leasehold,2,230000,51.6128391,-0.1162856
11/20/2018 0:00,"Flat D, 17, Bowes Road",N13 4UX,Flat,Old stock,Leasehold,1,240000,51.6122539,-0.1111255
11/19/2018 0:00,"83, The Larches",N13 5QD,Terraced house,Old stock,Freehold,3,510000,51.6237692,-0.0912353
11/16/2018 0:00,"148, Tottenhall Road",N13 6DL,Terraced house,Old stock,Freehold,2,400000,51.611236,-0.0999066
11/16/2018 0:00,"37, Park Avenue, Palmers Green",N13 5PG,Flat,Old stock,Leasehold,1,332000,51.6203805,-0.1035541
11/16/2018 0:00,"74, Hedge Lane",N13 5SP,Terraced house,Old stock,Freehold,3,550000,51.6217228,-0.0983535
11/16/2018 0:00,"12b, Elvendon Road",N13 4SJ,Flat,Old stock,Leasehold,2,397482,51.6106906,-0.1185501
11/16/2018 0:00,"229, Fox Lane",N13 4BB,Semi-detached house,Old stock,Freehold,4,890000,51.6286784,-0.1178522
11/14/2018 0:00,"167, Hedge Lane",N13 5BZ,Terraced house,Old stock,Freehold,3,483000,51.6202011,-0.0923814
11/13/2018 0:00,"26, Harlow Road",N13 5QT,Terraced house,Old stock,Freehold,3,465000,51.6233828,-0.0853596
11/12/2018 0:00,"37, St Pauls Rise",N13 6LB,Flat,Old stock,Leasehold,1,241000,51.6099255,-0.098913
11/9/2018 0:00,"69, Cranford Avenue",N13 4NY,Semi-detached house,Old stock,Freehold,3,635000,51.6139621,-0.116651
11/7/2018 0:00,"182, Tottenhall Road",N13 6DL,Terraced house,Old stock,Freehold,3,550000,51.6116037,-0.0983812
11/2/2018 0:00,"50, Belsize Avenue",N13 4TJ,Terraced house,Old stock,Leasehold,2,395000,51.6097253,-0.1127428
11/2/2018 0:00,"47b, Belsize Avenue",N13 4TL,Terraced house,Old stock,Leasehold,3,449500,51.6094459,-0.1127092
11/2/2018 0:00,"20, Berkshire Gardens, Palmers Green",N13 6AB,Terraced house,Old stock,Freehold,3,620000,51.608657,-0.108709
11/2/2018 0:00,"43, Kenmare Gardens",N13 5DR,Terraced house,Old stock,Freehold,4,545000,51.6172297,-0.0945579
11/1/2018 0:00,"27, Cherry Blossom Close",N13 6BQ,Flat,Old stock,Leasehold,2,287000,51.6147202,-0.0962427
11/1/2018 0:00,"76, Broomfield Avenue",N13 4JP,Terraced house,Old stock,Freehold,3,655000,51.6159783,-0.1145999
10/31/2018 0:00,"278, Green Lanes",N13 5TU,Flat,Old stock,Leasehold,4,340000,51.618067,-0.1082155
10/31/2018 0:00,"50b, Caversham Avenue",N13 4LN,Flat,Old stock,Leasehold,2,427000,51.6234299,-0.1077735
10/26/2018 0:00,"18a, Avondale Road",N13 4DU,Terraced house,Old stock,Leasehold,2,371100,51.6255636,-0.1035754
10/26/2018 0:00,"34, Harlow Road",N13 5QT,Terraced house,Old stock,Freehold,3,456000,51.6235562,-0.085176
10/26/2018 0:00,"2, Riverway",N13 5LJ,Semi-detached house,Old stock,Freehold,3,590000,51.6152261,-0.1065161
10/26/2018 0:00,"6, Fox Lane",N13 4AH,Flat,Old stock,Leasehold,2,500000,51.6211866,-0.1077368
10/24/2018 0:00,"587a, Green Lanes",N13 4EB,Flat,Old stock,Leasehold,2,355000,51.6256011,-0.0999942
10/23/2018 0:00,"91, The Grove",N13 5JS,Terraced house,Old stock,Freehold,4,775000,51.6187841,-0.1064275
10/22/2018 0:00,"3, Norfolk Close",N13 6AN,Terraced house,Old stock,Freehold,3,485000,51.6089704,-0.0965399
10/19/2018 0:00,"31a, Connaught Gardens",N13 5BP,Flat,Old stock,Leasehold,1,312000,51.6164061,-0.097442
10/17/2018 0:00,"38a, Hamilton Crescent",N13 5LW,Flat,Old stock,Leasehold,2,348000,51.6167622,-0.1025238
10/15/2018 0:00,"120, Hoppers Road",N21 3LH,Terraced house,Old stock,Freehold,3,650000,51.6267963,-0.1041311
10/15/2018 0:00,"291, Firs Lane",N13 5QH,Flat,Old stock,Leasehold,1,330995,51.6235513,-0.0900772
10/10/2018 0:00,"83, Derwent Road",N13 4QA,Terraced house,Old stock,Freehold,4,972000,51.6226537,-0.1136789
10/9/2018 0:00,"70a, Berkshire Gardens, Palmers Green",N13 6AB,Flat,Old stock,Leasehold,1,305000,51.6086295,-0.1063085
10/9/2018 0:00,"24, Connaught Gardens",N13 5BS,Terraced house,Old stock,Freehold,3,618000,51.6180212,-0.0964684
10/1/2018 0:00,"32, Crothall Close",N13 4BN,Detached house,Old stock,Freehold,4,700000,51.6253708,-0.1112923
10/1/2018 0:00,"185, Princes Avenue",N13 6HG,Terraced house,Old stock,Freehold,3,520000,51.6124142,-0.1004229
9/28/2018 0:00,"113, Westminster Drive",N13 4NT,Terraced house,Old stock,Freehold,3,500000,51.6136108,-0.1156684
9/28/2018 0:00,"1, Hedge Lane",N13 5SJ,Terraced house,Old stock,Freehold,3,512000,51.6233629,-0.1028478
9/21/2018 0:00,"24, Dawlish Avenue",N13 4HP,Terraced house,Old stock,Freehold,3,610000,51.616321,-0.1225158
9/21/2018 0:00,"21, Kelvin Avenue",N13 4TH,Terraced house,Old stock,Freehold,3,635500,51.6102368,-0.1113175
9/21/2018 0:00,"35, The Crest",N13 5JT,Terraced house,Old stock,Freehold,3,775000,51.618426,-0.1041662
9/19/2018 0:00,"8, Huxley Place",N13 5SU,Terraced house,Old stock,Freehold,4,630000,51.6202426,-0.0960152
9/17/2018 0:00,"3a, Lightcliffe Road",N13 5HD,Flat,Old stock,Leasehold,2,350000,51.6194179,-0.1031913
9/14/2018 0:00,"63, Amberley Road",N13 4BH,Terraced house,Old stock,Freehold,4,1050000,51.6263137,-0.1146161
9/14/2018 0:00,"115, Hazelwood Lane",N13 5HH,Terraced house,Old stock,Freehold,4,670000,51.6168671,-0.0995058
9/7/2018 0:00,"15, Millstream Close",N13 6EF,Flat,Old stock,Leasehold,1,250000,51.6129957,-0.1024437
9/7/2018 0:00,"20, Crothall Close",N13 4BN,Detached house,Old stock,Freehold,4,750000,51.6257814,-0.1120317
9/7/2018 0:00,"73, Hazelwood Lane",N13 5HE,Terraced house,Old stock,Freehold,3,597500,51.6176877,-0.101813
9/6/2018 0:00,"226, Tottenhall Road",N13 6DE,Terraced house,Old stock,Freehold,3,520000,51.6131588,-0.0952652
8/31/2018 0:00,"72, St Pauls Rise",N13 6LD,Flat,Old stock,Leasehold,2,280000,51.6100987,-0.0985013
8/31/2018 0:00,"61, Cherry Blossom Close",N13 6BQ,Flat,Old stock,Leasehold,1,255000,51.6150815,-0.0965936
8/30/2018 0:00,"5a, Broomfield Avenue",N13 4JJ,Flat,Old stock,Leasehold,2,470000,51.6180177,-0.112012
8/28/2018 0:00,"115, Powys Lane",N13 4HJ,Semi-detached house,Old stock,Freehold,6,1225000,51.6160262,-0.1191375
8/28/2018 0:00,"6, Melbourne Avenue",N13 4SX,Terraced house,Old stock,Freehold,3,685000,51.6110692,-0.1103413
8/24/2018 0:00,"34, Lynbridge Gardens",N13 5BH,Semi-detached house,Old stock,Freehold,3,537000,51.6180499,-0.0991067
8/22/2018 0:00,"47, Amberley Road",N13 4BH,Semi-detached house,Old stock,Freehold,3,780000,51.6268076,-0.1142953
8/20/2018 0:00,"152, Tottenhall Road",N13 6DL,Terraced house,Old stock,Freehold,2,393500,51.6112569,-0.0997723
8/17/2018 0:00,"121, Princes Avenue",N13 6HE,Terraced house,Old stock,Freehold,4,465000,51.6119693,-0.1036352
8/17/2018 0:00,"10b, Park Avenue, Palmers Green",N13 5PF,Flat,Old stock,Leasehold,1,310000,51.6209341,-0.1050514
8/16/2018 0:00,"109, The Grove",N13 5JS,Terraced house,Old stock,Freehold,3,605000,51.6193188,-0.1060708
8/10/2018 0:00,"36, Rayleigh Road",N13 5QR,Terraced house,Old stock,Freehold,3,487500,51.6238184,-0.0862226
8/10/2018 0:00,"54, Ash Grove",N13 5AR,Terraced house,Old stock,Freehold,3,528000,51.6221883,-0.0929741
8/10/2018 0:00,"347, Firs Lane",N13 5LX,Semi-detached house,Old stock,Freehold,3,555000,51.621717,-0.0910546
8/10/2018 0:00,"56, Pellipar Close",N13 4AG,Flat,Old stock,Leasehold,2,317500,51.6213932,-0.1062925
8/9/2018 0:00,"78, Palmerston Crescent",N13 4UB,Semi-detached house,Old stock,Leasehold,2,400000,51.6136367,-0.1129393
8/8/2018 0:00,"9, Briar Close",N13 5NL,Terraced house,Old stock,Freehold,3,262400,51.6218424,-0.0884283
7/31/2018 0:00,"39, Windsor Road",N13 5PP,Detached house,Old stock,Freehold,3,694000,51.6212237,-0.1032548
7/31/2018 0:00,"7, Elmwood Avenue",N13 4HG,Terraced house,Old stock,Freehold,3,800000,51.6161002,-0.1171671
7/30/2018 0:00,"11, Grovelands Road",N13 4RJ,Semi-detached house,Old stock,Freehold,4,1150000,51.6199296,-0.1127573
7/27/2018 0:00,"56, Palmerston Crescent",N13 4UA,Terraced house,Old stock,Freehold,4,675000,51.6141308,-0.112319
7/27/2018 0:00,"27, Spencer Avenue",N13 4TS,Terraced house,Old stock,Freehold,5,825000,51.6087807,-0.1124034
7/27/2018 0:00,"92, Palmerston Crescent",N13 4NH,Flat,Old stock,Leasehold,2,475000,51.6133278,-0.1133298
7/27/2018 0:00,"12, Melville Gardens",N13 6ET,Terraced house,Old stock,Freehold,3,525000,51.6124952,-0.1018286
7/27/2018 0:00,"29, Connaught Gardens",N13 5BP,Terraced house,Old stock,Freehold,3,525000,51.6164484,-0.0974014
7/27/2018 0:00,"22, Belmont Avenue, Palmers Green",N13 4HD,Flat,Old stock,Leasehold,1,390000,51.6159371,-0.1157143
7/24/2018 0:00,"Flat B, 71, Grovelands Road",N13 4RJ,Flat,Old stock,Leasehold,2,450000,51.6216923,-0.1110377
7/20/2018 0:00,"82, Grenoble Gardens",N13 6JH,Terraced house,Old stock,Freehold,3,625000,51.6103745,-0.104931
7/19/2018 0:00,"9, Birch Avenue",N13 5AS,Terraced house,Old stock,Freehold,4,692000,51.6212015,-0.0928501
7/17/2018 0:00,"23d, Sidney Avenue",N13 4XA,Flat,Old stock,Leasehold,1,288000,51.6115703,-0.1116338
7/16/2018 0:00,"67, New River Crescent",N13 5RQ,Terraced house,Old stock,Freehold,3,740000,51.6207211,-0.1010065
7/13/2018 0:00,"18c, Hazel Close",N13 5NJ,Flat,Old stock,Leasehold,1,230000,51.6212776,-0.0871546
7/12/2018 0:00,"34, Chimes Avenue",N13 5HX,Terraced house,Old stock,Freehold,4,695000,51.6157129,-0.102497
7/6/2018 0:00,"79, New Park Avenue",N13 5NA,Terraced house,Old stock,Freehold,3,505000,51.620127,-0.0859693
6/29/2018 0:00,"202, Princes Avenue",N13 6HL,Terraced house,Old stock,Freehold,3,490000,51.6122913,-0.0998235
6/29/2018 0:00,"32, The Fairway, Palmers Green",N13 5NF,Semi-detached house,Old stock,Freehold,4,555000,51.6223821,-0.0849042
6/29/2018 0:00,"20, Pymmes Road",N13 4RY,Terraced house,Old stock,Freehold,2,500000,51.6111231,-0.1178606
6/29/2018 0:00,"56, Ulster Gardens",N13 5DW,Terraced house,Old stock,Freehold,3,506000,51.6183336,-0.0925152
6/27/2018 0:00,"50, Avondale Road",N13 4DU,Terraced house,Old stock,Leasehold,2,417500,51.626456,-0.1030914
6/27/2018 0:00,"49, Chimes Avenue",N13 5HT,Terraced house,Old stock,Freehold,3,510000,51.6165782,-0.1006107
6/25/2018 0:00,"69, Stonard Road",N13 4DJ,Detached house,Old stock,Freehold,4,795000,51.624801,-0.1046049
6/22/2018 0:00,"304c, Firs Lane",N13 5QQ,Flat,Old stock,Leasehold,3,301000,51.6226089,-0.0901401
6/22/2018 0:00,"77a, Lakeside Road",N13 4PS,Flat,Old stock,Leasehold,3,500000,51.6221725,-0.1122746
6/18/2018 0:00,"5, Millstream Close",N13 6EF,Flat,Old stock,Leasehold,1,245000,51.6129877,-0.102229
6/15/2018 0:00,"185, Tottenhall Road",N13 6DP,Terraced house,Old stock,Freehold,3,485000,51.6113861,-0.1003271
6/15/2018 0:00,"8, Broomfield Avenue",N13 4JN,Flat,Old stock,Leasehold,4,535000,51.6181302,-0.1126463
6/14/2018 0:00,"93, Derwent Road",N13 4QA,Semi-detached house,Old stock,Freehold,4,895000,51.6229933,-0.1133921
6/8/2018 0:00,"17, The Fairway, Palmers Green",N13 5NE,Terraced house,Old stock,Freehold,3,478500,51.6220613,-0.0844547
6/8/2018 0:00,"32, Derwent Road",N13 4PU,Terraced house,Old stock,Freehold,4,890000,51.6210384,-0.1145598
6/6/2018 0:00,"38, Hazelwood Lane",N13 5EX,Terraced house,Old stock,Freehold,3,635000,51.619565,-0.1045477
6/6/2018 0:00,"96b, New River Crescent",N13 5RJ,Flat,Old stock,Leasehold,2,408000,51.6205885,-0.1006081
6/1/2018 0:00,"49, Fox Lane",N13 4AJ,Detached house,Old stock,Freehold,5,1125000,51.6224064,-0.1110513
5/30/2018 0:00,"34b, Palmerston Crescent",N13 4UA,Flat,Old stock,Leasehold,2,397000,51.6146503,-0.1115659
5/25/2018 0:00,"16, Hazel Close",N13 5NJ,Terraced house,Old stock,Freehold,3,460000,51.6218026,-0.0866541
5/25/2018 0:00,"28, Lightcliffe Road",N13 5HD,Flat,Old stock,Leasehold,1,350000,51.6198024,-0.1024008
5/25/2018 0:00,"21a, Lodge Drive",N13 5LA,Flat,Old stock,Leasehold,1,365000,51.6179042,-0.1051982
5/25/2018 0:00,"1, Pymmes Road",N13 4RY,Terraced house,Old stock,Freehold,3,452500,51.6119048,-0.1175412
5/24/2018 0:00,"5, Huxley Place",N13 5SU,Terraced house,Old stock,Freehold,3,585000,51.6208882,-0.0957549
5/23/2018 0:00,"43, Chimes Avenue",N13 5HT,Terraced house,Old stock,Freehold,3,525000,51.6164135,-0.1008406
5/18/2018 0:00,"70, Derwent Road",N13 4PX,Terraced house,Old stock,Freehold,4,740000,51.6220779,-0.1135843
5/16/2018 0:00,"13, Cherry Blossom Close",N13 6BQ,Flat,Old stock,Leasehold,2,277500,51.6143471,-0.0957938
5/14/2018 0:00,"63, Hedge Lane",N13 5SZ,Terraced house,Old stock,Freehold,3,527000,51.6222457,-0.0985686
5/14/2018 0:00,"95, Medesenge Way",N13 6DZ,Flat,Old stock,Leasehold,1,249000,51.6096801,-0.0998601
5/14/2018 0:00,"67, Tottenhall Road",N13 6HY,Terraced house,Old stock,Freehold,3,537500,51.6113648,-0.1060072
5/4/2018 0:00,"63a, Park Avenue, Palmers Green",N13 5PH,Flat,Old stock,Leasehold,1,360000,51.6201552,-0.1021446
5/4/2018 0:00,"68c, Park Avenue",N13 5PN,Flat,Old stock,Leasehold,2,369000,51.620421,-0.1021527
4/30/2018 0:00,"19, Belmont Avenue, Palmers Green",N13 4HD,Terraced house,Old stock,Freehold,3,800000,51.615837,-0.115884
4/27/2018 0:00,"61, Belsize Avenue",N13 4TL,Semi-detached house,Old stock,Freehold,4,765000,51.609447,-0.112177
4/27/2018 0:00,"35a, Old Park Road",N13 4RG,Semi-detached house,Old stock,Leasehold,2,535000,51.620137,-0.110755
4/27/2018 0:00,"36, Kenmare Gardens",N13 5DN,Terraced house,Old stock,Freehold,3,475000,51.617036,-0.093791
4/27/2018 0:00,"62, Devonshire Road, Palmers Green",N13 4QX,Flat,Old stock,Leasehold,2,417000,51.619217,-0.108492
4/23/2018 0:00,"38, Russell Road",N13 4RP,Terraced house,Old stock,Freehold,3,590000,51.610693,-0.115851
4/18/2018 0:00,"326, Firs Lane",N13 5LY,Terraced house,Old stock,Freehold,3,537500,51.621462,-0.090529
4/18/2018 0:00,"74, Cranley Gardens",N13 4LS,Terraced house,Old stock,Freehold,4,755500,51.624595,-0.110233
4/12/2018 0:00,"18, Crawford Gardens",N13 5TD,Terraced house,Old stock,Freehold,3,550000,51.623187,-0.098792
4/6/2018 0:00,"274b, Green Lanes",N13 5TU,Flat,Old stock,Leasehold,1,185000,51.617949,-0.108318
4/6/2018 0:00,"111, New Park Avenue",N13 5NA,Terraced house,Old stock,Freehold,3,565000,51.620335,-0.088178
4/5/2018 0:00,"20, Hamilton Crescent",N13 5LW,Semi-detached house,Old stock,Freehold,4,760000,51.616678,-0.102762
4/5/2018 0:00,"31, St Georges Road",N13 4AT,Terraced house,Old stock,Freehold,4,875000,51.62584,-0.113273
4/3/2018 0:00,"21, Lightcliffe Road",N13 5HD,Terraced house,Old stock,Freehold,4,703500,51.619649,-0.102985
3/29/2018 0:00,"7, Ruby Mews",N13 4EN,Flat,New-build,Leasehold,3,530000,51.612836,-0.119738
3/29/2018 0:00,"110, Riverway",N13 5JX,Terraced house,Old stock,Freehold,3,632000,51.617555,-0.104156
3/28/2018 0:00,"Flat C, 76, Palmerston Crescent",N13 4UB,Flat,Old stock,Leasehold,1,230000,51.613791,-0.112762
3/26/2018 0:00,"14a, Cranley Gardens",N13 4LS,Terraced house,Old stock,Leasehold,2,515000,51.624595,-0.110233
3/19/2018 0:00,"35, Wolves Lane",N13 6DS,Terraced house,Old stock,Freehold,3,550000,51.609384,-0.102127
3/19/2018 0:00,"22c, Park Avenue, Palmers Green",N13 5PF,Flat,Old stock,Leasehold,1,307000,51.620718,-0.104024
3/16/2018 0:00,"27, Windsor Road",N13 5PP,Flat,Old stock,Leasehold,2,436000,51.621298,-0.103711
3/16/2018 0:00,"176, Princes Avenue",N13 6HL,Terraced house,Old stock,Freehold,3,570000,51.611843,-0.100725
3/9/2018 0:00,"53, Russell Road",N13 4RS,Terraced house,Old stock,Freehold,3,665000,51.61086,-0.116148
3/9/2018 0:00,"147, North Circular Road",N13 5EL,Terraced house,Old stock,Freehold,3,420000,51.616512,-0.094174
3/9/2018 0:00,"32c, Hardwicke Road",N13 4SG,Terraced house,Old stock,Leasehold,2,357000,51.611593,-0.120956
3/5/2018 0:00,"46, Pilgrims Close",N13 4HY,Flat,Old stock,Leasehold,2,340000,51.617228,-0.111796
3/5/2018 0:00,"54, Melbourne Avenue",N13 4SX,Terraced house,Old stock,Freehold,3,672500,51.611122,-0.111775
3/5/2018 0:00,"6, Crestbrook Avenue",N13 5RR,Terraced house,Old stock,Freehold,3,640000,51.624025,-0.100563
3/2/2018 0:00,"40, Osborne Road",N13 5PS,Terraced house,Old stock,Freehold,4,885000,51.622081,-0.10323
3/1/2018 0:00,"46, The Grove",N13 5JR,Terraced house,Old stock,Freehold,3,645000,51.618887,-0.10592
2/23/2018 0:00,"39, Dorchester Avenue",N13 5DY,Terraced house,Old stock,Freehold,4,595000,51.618811,-0.09233
2/23/2018 0:00,"2a, Fox Lane",N13 4AH,Flat,Old stock,Leasehold,1,404500,51.621981,-0.109302
2/23/2018 0:00,"38a, Lakeside Road",N13 4PR,Flat,Old stock,Leasehold,4,635000,51.621066,-0.112807
2/22/2018 0:00,"60, Fox Lane",N13 4AR,Flat,Old stock,Leasehold,1,390000,51.623675,-0.11176
2/19/2018 0:00,"373a, Green Lanes",N13 4TY,Flat,Old stock,Leasehold,2,265000,51.61898,-0.107751
2/16/2018 0:00,"15, Grenoble Gardens",N13 6JE,Terraced house,Old stock,Freehold,5,740000,51.610586,-0.107493
2/16/2018 0:00,"58, Grenoble Gardens",N13 6JG,Semi-detached house,Old stock,Freehold,3,560000,51.610263,-0.107579
2/16/2018 0:00,"58, Grenoble Gardens",N13 6JG,Terraced house,Old stock,Leasehold,3,560000,51.610263,-0.107579
2/16/2018 0:00,"24, Hedge Lane",N13 5SH,Terraced house,Old stock,Freehold,3,490000,51.622769,-0.101858
2/12/2018 0:00,"3b, Ensign Drive",N13 5AF,Flat,Old stock,Leasehold,1,250000,51.623693,-0.093353
2/9/2018 0:00,"30, Devonshire Road, Palmers Green",N13 4QX,Terraced house,Old stock,Freehold,4,765000,51.619217,-0.108492
2/9/2018 0:00,"36, Hedge Lane",N13 5SH,Terraced house,Old stock,Freehold,4,635000,51.622769,-0.101858
2/9/2018 0:00,"38, Hamilton Crescent",N13 5LW,Flat,Old stock,Leasehold,2,425000,51.616678,-0.102762
1/31/2018 0:00,"Flat 21, Hertford Court, Green Lanes",N13 4DD,Flat,Old stock,Leasehold,2,345000,51.623966,-0.103556
1/29/2018 0:00,"4, Old Park Road",N13 4RE,Terraced house,Old stock,Freehold,2,800000,51.620001,-0.110309
1/26/2018 0:00,"13a, The Rise",N13 5LF,Terraced house,Old stock,Leasehold,1,330000,51.61665,-0.105464
1/26/2018 0:00,"186, Hedge Lane",N13 5DA,Terraced house,Old stock,Freehold,3,526000,51.619379,-0.091324
1/10/2018 0:00,"104, Princes Avenue",N13 6HD,Terraced house,Old stock,Freehold,3,555000,51.611688,-0.103938
1/10/2018 0:00,"172, Tottenhall Road",N13 6DL,Terraced house,Old stock,Freehold,3,525000,51.611377,-0.099156
1/9/2018 0:00,"19a, Elmwood Avenue",N13 4HG,Flat,Old stock,Leasehold,2,442000,51.61588,-0.117399
12/21/2017 0:00,"76a, Crawford Gardens",N13 5TE,Flat,Old stock,Leasehold,1,254000,51.623231,-0.09593
12/21/2017 0:00,"96a, New River Crescent",N13 5RJ,Flat,Old stock,Leasehold,2,390000,51.621293,-0.100634
12/20/2017 0:00,"80, Palmerston Crescent",N13 4NH,Semi-detached house,Old stock,Freehold,4,670000,51.613324,-0.113374
12/20/2017 0:00,"25, Harlow Road",N13 5QT,Terraced house,Old stock,Freehold,3,455000,51.623286,-0.085526
12/18/2017 0:00,"56a, Grovelands Road",N13 4RH,Flat,Old stock,Leasehold,1,568500,51.62041,-0.111679
12/15/2017 0:00,"108, Hazelwood Lane",N13 5HF,Terraced house,Old stock,Freehold,3,615000,51.618075,-0.101837
12/15/2017 0:00,"76, Hazelwood Lane",N13 5HB,Terraced house,Old stock,Freehold,4,776000,51.618978,-0.103215
12/14/2017 0:00,"73, The Larches",N13 5QD,Terraced house,Old stock,Freehold,4,575000,51.623928,-0.091249
12/14/2017 0:00,"36, Upsdell Avenue",N13 6JN,Semi-detached house,Old stock,Freehold,3,545000,51.609445,-0.107599
12/13/2017 0:00,"5a, Kingsley Road",N13 5PJ,Semi-detached house,Old stock,Leasehold,2,360000,51.619343,-0.101813
12/13/2017 0:00,"37, Medesenge Way",N13 6DZ,Flat,Old stock,Leasehold,1,222000,51.609678,-0.099761
12/11/2017 0:00,"9a, Cranley Gardens",N13 4LT,Flat,Old stock,Leasehold,2,418000,51.62479,-0.11063
